{
"type": "FeatureCollection",
"name": "cctv",
"crs": { "type": "name", "properties": { "name": "urn:ogc:def:crs:OGC:1.3:CRS84" } },
"features": [
{ "type": "Feature", "properties": { "number": 1, "region": "전라남도 목포시", "address": "전라남도 목포시 산정로226번길 15", "field_4": null, "purpose": "생활방범", "camera_count": 3, "pixel": 200, "information": "동목포방범초소앞", "storage_days": 30, "field_10": null, "organ_number": "061-270-8733", "latitude": 34.809013, "longitude": 126.389822, "date": "2023-11-30" }, "geometry": { "type": "Point", "coordinates": [ 126.389822, 34.809013 ] } },
{ "type": "Feature", "properties": { "number": 2, "region": "전라남도 목포시", "address": "전라남도 목포시 신흥로83번길 14", "field_4": null, "purpose": "생활방범", "camera_count": 4, "pixel": 200, "information": "목련아파트뒷길", "storage_days": 30, "field_10": null, "organ_number": "061-270-8733", "latitude": 34.805661, "longitude": 126.428714, "date": "2023-11-30" }, "geometry": { "type": "Point", "coordinates": [ 126.428714, 34.805661 ] } },
{ "type": "Feature", "properties": { "number": 3, "region": "전라남도 목포시", "address": "전라남도 목포시 상리로1번길 30", "field_4": null, "purpose": "생활방범", "camera_count": 3, "pixel": 200, "information": "상동행정복지센터뒷길", "storage_days": 30, "field_10": null, "organ_number": "061-270-8733", "latitude": 34.813495, "longitude": 126.414209, "date": "2023-11-30" }, "geometry": { "type": "Point", "coordinates": [ 126.414209, 34.813495 ] } },
{ "type": "Feature", "properties": { "number": 4, "region": "전라남도 목포시", "address": "전라남도 목포시 용해지구로88번길", "field_4": null, "purpose": "생활방범", "camera_count": 3, "pixel": 200, "information": "골드디움5차상가앞", "storage_days": 30, "field_10": null, "organ_number": "061-270-8733", "latitude": 34.820145, "longitude": 126.395748, "date": "2023-11-30" }, "geometry": { "type": "Point", "coordinates": [ 126.395748, 34.820145 ] } },
{ "type": "Feature", "properties": { "number": 5, "region": "전라남도 목포시", "address": "전라남도 목포시 용당로280번길 2", "field_4": null, "purpose": "생활방범", "camera_count": 4, "pixel": 200, "information": "한아름골든빌앞", "storage_days": 30, "field_10": null, "organ_number": "061-270-8733", "latitude": 34.812004, "longitude": 126.399686, "date": "2023-11-30" }, "geometry": { "type": "Point", "coordinates": [ 126.399686, 34.812004 ] } },
{ "type": "Feature", "properties": { "number": 6, "region": "전라남도 목포시", "address": "전라남도 목포시 안태길32번길 9-1", "field_4": null, "purpose": "생활방범", "camera_count": 4, "pixel": 200, "information": "선덕사앞", "storage_days": 30, "field_10": null, "organ_number": "061-270-8733", "latitude": 34.80746, "longitude": 126.407562, "date": "2023-11-30" }, "geometry": { "type": "Point", "coordinates": [ 126.407562, 34.80746 ] } },
{ "type": "Feature", "properties": { "number": 7, "region": "전라남도 목포시", "address": "전라남도 목포시 남악1로 51, (108동 뒷편)", "field_4": null, "purpose": "생활방범", "camera_count": 4, "pixel": 200, "information": "애향초뒤산책로", "storage_days": 30, "field_10": null, "organ_number": "061-270-8733", "latitude": 34.808912, "longitude": 126.443574, "date": "2023-11-30" }, "geometry": { "type": "Point", "coordinates": [ 126.443574, 34.808912 ] } },
{ "type": "Feature", "properties": { "number": 8, "region": "전라남도 목포시", "address": "전라남도 목포시 상동로26번길 5", "field_4": null, "purpose": "생활방범", "camera_count": 6, "pixel": 200, "information": "상동우체국", "storage_days": 30, "field_10": null, "organ_number": "061-270-8733", "latitude": 34.81272, "longitude": 126.415329, "date": "2023-11-30" }, "geometry": { "type": "Point", "coordinates": [ 126.415329, 34.81272 ] } },
{ "type": "Feature", "properties": { "number": 9, "region": "전라남도 목포시", "address": "전라남도 목포시 하당남부로 53", "field_4": null, "purpose": "생활방범", "camera_count": 4, "pixel": 200, "information": "씨유행복점", "storage_days": 30, "field_10": null, "organ_number": "061-270-8733", "latitude": 34.800073, "longitude": 126.430331, "date": "2023-11-30" }, "geometry": { "type": "Point", "coordinates": [ 126.430331, 34.800073 ] } },
{ "type": "Feature", "properties": { "number": 10, "region": "전라남도 목포시", "address": "전라남도 목포시 원형로 45", "field_4": null, "purpose": "생활방범", "camera_count": 4, "pixel": 200, "information": "미니스톱대양점", "storage_days": 30, "field_10": null, "organ_number": "061-270-8733", "latitude": 34.798876, "longitude": 126.431351, "date": "2023-11-30" }, "geometry": { "type": "Point", "coordinates": [ 126.431351, 34.798876 ] } },
{ "type": "Feature", "properties": { "number": 11, "region": "전라남도 목포시", "address": "전라남도 목포시 둥근섬로 77", "field_4": null, "purpose": "생활방범", "camera_count": 4, "pixel": 200, "information": "거성양지빌라", "storage_days": 30, "field_10": null, "organ_number": "061-270-8733", "latitude": 34.794632, "longitude": 126.398984, "date": "2023-11-30" }, "geometry": { "type": "Point", "coordinates": [ 126.398984, 34.794632 ] } },
{ "type": "Feature", "properties": { "number": 12, "region": "전라남도 목포시", "address": "전라남도 목포시 동명들목로 33", "field_4": null, "purpose": "생활방범", "camera_count": 4, "pixel": 200, "information": "그린오피스텔", "storage_days": 30, "field_10": null, "organ_number": "061-270-8733", "latitude": 34.790431, "longitude": 126.393717, "date": "2023-11-30" }, "geometry": { "type": "Point", "coordinates": [ 126.393717, 34.790431 ] } },
{ "type": "Feature", "properties": { "number": 13, "region": "전라남도 목포시", "address": "전라남도 목포시 영산로 668", "field_4": null, "purpose": "재난재해", "camera_count": 1, "pixel": 200, "information": "석현삼거리교통섬", "storage_days": 30, "field_10": null, "organ_number": "061-270-8733", "latitude": 34.824888, "longitude": 126.422956, "date": "2023-11-30" }, "geometry": { "type": "Point", "coordinates": [ 126.422956, 34.824888 ] } },
{ "type": "Feature", "properties": { "number": 14, "region": "전라남도 목포시", "address": "전라남도 목포시 영산로 509", "field_4": null, "purpose": "재난재해", "camera_count": 1, "pixel": 200, "information": "버스터미널사거리털보의류프라자앞", "storage_days": 30, "field_10": null, "organ_number": "061-270-8733", "latitude": 34.811002, "longitude": 126.417648, "date": "2023-11-30" }, "geometry": { "type": "Point", "coordinates": [ 126.417648, 34.811002 ] } },
{ "type": "Feature", "properties": { "number": 15, "region": "전라남도 목포시", "address": "전라남도 목포시 미항로 206", "field_4": null, "purpose": "재난재해", "camera_count": 1, "pixel": 200, "information": "평화교끝지점", "storage_days": 30, "field_10": null, "organ_number": "061-270-8733", "latitude": 34.798817, "longitude": 126.440057, "date": "2023-11-30" }, "geometry": { "type": "Point", "coordinates": [ 126.440057, 34.798817 ] } },
{ "type": "Feature", "properties": { "number": 16, "region": "전라남도 목포시", "address": "전라남도 목포시 삼학로 77-1", "field_4": null, "purpose": "재난재해", "camera_count": 1, "pixel": 200, "information": "물양장주차장내", "storage_days": 30, "field_10": null, "organ_number": "061-270-8733", "latitude": 34.787863, "longitude": 126.392782, "date": "2023-11-30" }, "geometry": { "type": "Point", "coordinates": [ 126.392782, 34.787863 ] } },
{ "type": "Feature", "properties": { "number": 17, "region": "전라남도 목포시", "address": "전라남도 목포시 죽교천로 93", "field_4": null, "purpose": "재난재해", "camera_count": 1, "pixel": 200, "information": "서부초후문건너편교통제어부스옆", "storage_days": 30, "field_10": null, "organ_number": "061-270-8733", "latitude": 34.80195, "longitude": 126.372078, "date": "2023-11-30" }, "geometry": { "type": "Point", "coordinates": [ 126.372078, 34.80195 ] } },
{ "type": "Feature", "properties": { "number": 18, "region": "전라남도 목포시", "address": "전라남도 목포시 고하대로 614", "field_4": null, "purpose": "재난재해", "camera_count": 1, "pixel": 200, "information": "목포대교진입전사거리", "storage_days": 30, "field_10": null, "organ_number": "061-270-8733", "latitude": 34.80369, "longitude": 126.367333, "date": "2023-11-30" }, "geometry": { "type": "Point", "coordinates": [ 126.367333, 34.80369 ] } },
{ "type": "Feature", "properties": { "number": 19, "region": "전라남도 목포시", "address": "전라남도 목포시 영산로 288", "field_4": null, "purpose": "재난재해", "camera_count": 1, "pixel": 200, "information": "목포우체국사거리", "storage_days": 30, "field_10": null, "organ_number": "061-270-8733", "latitude": 34.805071, "longitude": 126.398133, "date": "2023-11-30" }, "geometry": { "type": "Point", "coordinates": [ 126.398133, 34.805071 ] } },
{ "type": "Feature", "properties": { "number": 20, "region": "전라남도 목포시", "address": "전라남도 목포시 남악로 22-14", "field_4": null, "purpose": "재난재해", "camera_count": 1, "pixel": 200, "information": "하구둑시작점남악방향교통섬", "storage_days": 30, "field_10": null, "organ_number": "061-270-8733", "latitude": 34.802822, "longitude": 126.439631, "date": "2023-11-30" }, "geometry": { "type": "Point", "coordinates": [ 126.439631, 34.802822 ] } },
{ "type": "Feature", "properties": { "number": 21, "region": "전라남도 목포시", "address": "전라남도 목포시 자유로 26", "field_4": null, "purpose": "재난재해", "camera_count": 1, "pixel": 200, "information": "구)자유시장사거리", "storage_days": 30, "field_10": null, "organ_number": "061-270-8733", "latitude": 34.793415, "longitude": 126.392787, "date": "2023-11-30" }, "geometry": { "type": "Point", "coordinates": [ 126.392787, 34.793415 ] } },
{ "type": "Feature", "properties": { "number": 22, "region": "전라남도 목포시", "address": "전라남도 목포시 산정로 157", "field_4": null, "purpose": "재난재해", "camera_count": 1, "pixel": 200, "information": "2호광장사거리교통섬", "storage_days": 30, "field_10": null, "organ_number": "061-270-8733", "latitude": 34.80251, "longitude": 126.392514, "date": "2023-11-30" }, "geometry": { "type": "Point", "coordinates": [ 126.392514, 34.80251 ] } },
{ "type": "Feature", "properties": { "number": 23, "region": "전라남도 목포시", "address": "전라남도 목포시 달리길 49", "field_4": null, "purpose": "기타", "camera_count": 1, "pixel": 200, "information": "달리도(산불감시)", "storage_days": 30, "field_10": null, "organ_number": "061-270-8733", "latitude": 34.764389, "longitude": 126.307258, "date": "2023-11-30" }, "geometry": { "type": "Point", "coordinates": [ 126.307258, 34.764389 ] } },
{ "type": "Feature", "properties": { "number": 24, "region": "전라남도 목포시", "address": "전라남도 목포시 유달로 221-1", "field_4": null, "purpose": "기타", "camera_count": 1, "pixel": 200, "information": "유달산3등바위(산불감시)", "storage_days": 30, "field_10": null, "organ_number": "061-270-8733", "latitude": 34.789793, "longitude": 126.37275, "date": "2023-11-30" }, "geometry": { "type": "Point", "coordinates": [ 126.37275, 34.789793 ] } },
{ "type": "Feature", "properties": { "number": 25, "region": "전라남도 목포시", "address": "전라남도 목포시 부주로 312", "field_4": null, "purpose": "기타", "camera_count": 1, "pixel": 200, "information": "부주산(산불감시)", "storage_days": 30, "field_10": null, "organ_number": "061-270-8733", "latitude": 34.814405, "longitude": 126.437038, "date": "2023-11-30" }, "geometry": { "type": "Point", "coordinates": [ 126.437038, 34.814405 ] } },
{ "type": "Feature", "properties": { "number": 26, "region": "전라남도 목포시", "address": "전라남도 목포시 대양로 241-89", "field_4": null, "purpose": "기타", "camera_count": 1, "pixel": 200, "information": "대박산(산불감시)", "storage_days": 30, "field_10": null, "organ_number": "061-270-8733", "latitude": 34.82882, "longitude": 126.410805, "date": "2023-11-30" }, "geometry": { "type": "Point", "coordinates": [ 126.410805, 34.82882 ] } },
{ "type": "Feature", "properties": { "number": 27, "region": "전라남도 목포시", "address": "전라남도 목포시 신흥로 101", "field_4": null, "purpose": "어린이보호", "camera_count": 4, "pixel": 200, "information": "옥암어린이공원산책로", "storage_days": 30, "field_10": null, "organ_number": "061-270-8733", "latitude": 34.80641, "longitude": 126.430679, "date": "2023-11-30" }, "geometry": { "type": "Point", "coordinates": [ 126.430679, 34.80641 ] } },
{ "type": "Feature", "properties": { "number": 28, "region": "전라남도 목포시", "address": "전라남도 목포시 고하대로646번길 28-1", "field_4": null, "purpose": "어린이보호", "camera_count": 1, "pixel": 200, "information": "북항경로당", "storage_days": 30, "field_10": null, "organ_number": "061-270-8733", "latitude": 34.803616, "longitude": 126.373519, "date": "2023-11-30" }, "geometry": { "type": "Point", "coordinates": [ 126.373519, 34.803616 ] } },
{ "type": "Feature", "properties": { "number": 29, "region": "전라남도 목포시", "address": "전라남도 목포시 청호로219번길 34-22", "field_4": null, "purpose": "어린이보호", "camera_count": 4, "pixel": 200, "information": "노을공원2", "storage_days": 30, "field_10": null, "organ_number": "061-270-8733", "latitude": 34.808786, "longitude": 126.365637, "date": "2023-11-30" }, "geometry": { "type": "Point", "coordinates": [ 126.365637, 34.808786 ] } },
{ "type": "Feature", "properties": { "number": 30, "region": "전라남도 목포시", "address": "전라남도 목포시 청호로219번길 34-22", "field_4": null, "purpose": "어린이보호", "camera_count": 3, "pixel": 200, "information": "노을공원1", "storage_days": 30, "field_10": null, "organ_number": "061-270-8733", "latitude": 34.807612, "longitude": 126.364403, "date": "2023-11-30" }, "geometry": { "type": "Point", "coordinates": [ 126.364403, 34.807612 ] } },
{ "type": "Feature", "properties": { "number": 31, "region": "전라남도 목포시", "address": "전라남도 목포시 원산로59번길 14", "field_4": null, "purpose": "어린이보호", "camera_count": 3, "pixel": 200, "information": "한성타워경로당앞", "storage_days": 30, "field_10": null, "organ_number": "061-270-8733", "latitude": 34.805281, "longitude": 126.376183, "date": "2023-11-30" }, "geometry": { "type": "Point", "coordinates": [ 126.376183, 34.805281 ] } },
{ "type": "Feature", "properties": { "number": 32, "region": "전라남도 목포시", "address": "전라남도 목포시 하당로206-2", "field_4": null, "purpose": "어린이보호", "camera_count": 2, "pixel": 200, "information": "스타오피스텔주변", "storage_days": 30, "field_10": null, "organ_number": "061-270-8733", "latitude": 34.807, "longitude": 126.419, "date": "2023-11-30" }, "geometry": { "type": "Point", "coordinates": [ 126.419, 34.807 ] } },
{ "type": "Feature", "properties": { "number": 33, "region": "전라남도 목포시", "address": "전라남도 목포시 용당로 257", "field_4": null, "purpose": "어린이보호", "camera_count": 3, "pixel": 200, "information": "동목포길 낭만열차앞", "storage_days": 30, "field_10": null, "organ_number": "061-270-8733", "latitude": 34.808178, "longitude": 126.398345, "date": "2023-11-30" }, "geometry": { "type": "Point", "coordinates": [ 126.398345, 34.808178 ] } },
{ "type": "Feature", "properties": { "number": 34, "region": "전라남도 목포시", "address": "전라남도 목포시 섶나루길 107", "field_4": null, "purpose": "어린이보호", "camera_count": 6, "pixel": 200, "information": "실내게이트볼장주변", "storage_days": 30, "field_10": null, "organ_number": "061-270-8733", "latitude": 34.81048, "longitude": 126.418178, "date": "2023-11-30" }, "geometry": { "type": "Point", "coordinates": [ 126.418178, 34.81048 ] } },
{ "type": "Feature", "properties": { "number": 35, "region": "전라남도 목포시", "address": "전라남도 목포시 하당로 211", "field_4": null, "purpose": "어린이보호", "camera_count": 4, "pixel": 200, "information": "하당동행정복지센터앞", "storage_days": 30, "field_10": null, "organ_number": "061-270-8733", "latitude": 34.808, "longitude": 126.42, "date": "2023-11-30" }, "geometry": { "type": "Point", "coordinates": [ 126.42, 34.808 ] } },
{ "type": "Feature", "properties": { "number": 36, "region": "전라남도 목포시", "address": "전라남도 목포시 남악1로42번길 53", "field_4": null, "purpose": "어린이보호", "camera_count": 4, "pixel": 200, "information": "부주근린공원3-1", "storage_days": 30, "field_10": null, "organ_number": "061-270-8733", "latitude": 34.810082, "longitude": 126.451426, "date": "2023-11-30" }, "geometry": { "type": "Point", "coordinates": [ 126.451426, 34.810082 ] } },
{ "type": "Feature", "properties": { "number": 37, "region": "전라남도 목포시", "address": "전라남도 목포시 삼학로 222-3", "field_4": null, "purpose": "어린이보호", "camera_count": 4, "pixel": 200, "information": "남농로남항입구", "storage_days": 30, "field_10": null, "organ_number": "061-270-8733", "latitude": 34.793281, "longitude": 126.411086, "date": "2023-11-30" }, "geometry": { "type": "Point", "coordinates": [ 126.411086, 34.793281 ] } },
{ "type": "Feature", "properties": { "number": 38, "region": "전라남도 목포시", "address": "전라남도 목포시 죽산로19번길 10", "field_4": null, "purpose": "어린이보호", "camera_count": 6, "pixel": 200, "information": "도서관공원 주변", "storage_days": 30, "field_10": null, "organ_number": "061-270-8733", "latitude": 34.808184, "longitude": 126.376387, "date": "2023-11-30" }, "geometry": { "type": "Point", "coordinates": [ 126.376387, 34.808184 ] } },
{ "type": "Feature", "properties": { "number": 39, "region": "전라남도 목포시", "address": "전라남도 목포시 연산백련로1번길 8-4", "field_4": null, "purpose": "어린이보호", "camera_count": 4, "pixel": 200, "information": "카페오가다주변", "storage_days": 30, "field_10": null, "organ_number": "061-270-8733", "latitude": 34.816672, "longitude": 126.392194, "date": "2023-11-30" }, "geometry": { "type": "Point", "coordinates": [ 126.392194, 34.816672 ] } },
{ "type": "Feature", "properties": { "number": 40, "region": "전라남도 목포시", "address": "전라남도 목포시 연산백련로31번길 6-8", "field_4": null, "purpose": "어린이보호", "camera_count": 3, "pixel": 200, "information": "목포백련유치원앞", "storage_days": 30, "field_10": null, "organ_number": "061-270-8733", "latitude": 34.817036, "longitude": 126.389858, "date": "2023-11-30" }, "geometry": { "type": "Point", "coordinates": [ 126.389858, 34.817036 ] } },
{ "type": "Feature", "properties": { "number": 41, "region": "전라남도 목포시", "address": "전라남도 목포시 고하대로719번길 4", "field_4": null, "purpose": "어린이보호", "camera_count": 4, "pixel": 200, "information": "연산근린공원", "storage_days": 30, "field_10": null, "organ_number": "061-270-8733", "latitude": 34.81109, "longitude": 126.375347, "date": "2023-11-30" }, "geometry": { "type": "Point", "coordinates": [ 126.375347, 34.81109 ] } },
{ "type": "Feature", "properties": { "number": 42, "region": "전라남도 목포시", "address": "전라남도 목포시 연산백련로1번길 51", "field_4": null, "purpose": "어린이보호", "camera_count": 2, "pixel": 200, "information": "포미타운6단지앞", "storage_days": 30, "field_10": null, "organ_number": "061-270-8733", "latitude": 34.815406, "longitude": 126.389051, "date": "2023-11-30" }, "geometry": { "type": "Point", "coordinates": [ 126.389051, 34.815406 ] } },
{ "type": "Feature", "properties": { "number": 43, "region": "전라남도 목포시", "address": "전라남도 목포시 죽산로40번길 19", "field_4": null, "purpose": "어린이보호", "camera_count": 3, "pixel": 200, "information": "서해사우나앞", "storage_days": 30, "field_10": null, "organ_number": "061-270-8733", "latitude": 34.810903, "longitude": 126.376891, "date": "2023-11-30" }, "geometry": { "type": "Point", "coordinates": [ 126.376891, 34.810903 ] } },
{ "type": "Feature", "properties": { "number": 44, "region": "전라남도 목포시", "address": "전라남도 목포시 둥근섬로102번길 2", "field_4": null, "purpose": "어린이보호", "camera_count": 2, "pixel": 200, "information": "제일세탁소앞", "storage_days": 30, "field_10": null, "organ_number": "061-270-8733", "latitude": 34.796441, "longitude": 126.398895, "date": "2023-11-30" }, "geometry": { "type": "Point", "coordinates": [ 126.398895, 34.796441 ] } },
{ "type": "Feature", "properties": { "number": 45, "region": "전라남도 목포시", "address": "전라남도 목포시 섶나루길 167", "field_4": null, "purpose": "어린이보호", "camera_count": 3, "pixel": 200, "information": "호반리젠시빌아파트건너편", "storage_days": 30, "field_10": null, "organ_number": "061-270-8733", "latitude": 34.814391, "longitude": 126.419946, "date": "2023-11-30" }, "geometry": { "type": "Point", "coordinates": [ 126.419946, 34.814391 ] } },
{ "type": "Feature", "properties": { "number": 46, "region": "전라남도 목포시", "address": "전라남도 목포시 영산로 610-1", "field_4": null, "purpose": "어린이보호", "camera_count": 3, "pixel": 200, "information": "수창아파트뒤편", "storage_days": 30, "field_10": null, "organ_number": "061-270-8733", "latitude": 34.819723, "longitude": 126.426213, "date": "2023-11-30" }, "geometry": { "type": "Point", "coordinates": [ 126.426213, 34.819723 ] } },
{ "type": "Feature", "properties": { "number": 47, "region": "전라남도 목포시", "address": "전라남도 목포시 송림로 91-7", "field_4": null, "purpose": "어린이보호", "camera_count": 3, "pixel": 200, "information": "목포과학대기숙사후문", "storage_days": 30, "field_10": null, "organ_number": "061-270-8733", "latitude": 34.805732, "longitude": 126.408377, "date": "2023-11-30" }, "geometry": { "type": "Point", "coordinates": [ 126.408377, 34.805732 ] } },
{ "type": "Feature", "properties": { "number": 48, "region": "전라남도 목포시", "address": "전라남도 목포시 산정원뚝길 24", "field_4": null, "purpose": "생활방범", "camera_count": 4, "pixel": 200, "information": "산정원뚝길주변", "storage_days": 30, "field_10": null, "organ_number": "061-270-8733", "latitude": 34.796494, "longitude": 126.390439, "date": "2023-11-30" }, "geometry": { "type": "Point", "coordinates": [ 126.390439, 34.796494 ] } },
{ "type": "Feature", "properties": { "number": 49, "region": "전라남도 목포시", "address": "전라남도 목포시 삼일로 45", "field_4": null, "purpose": "생활방범", "camera_count": 3, "pixel": 200, "information": "정명여고정문", "storage_days": 30, "field_10": null, "organ_number": "061-270-8733", "latitude": 34.796221, "longitude": 126.384409, "date": "2023-11-30" }, "geometry": { "type": "Point", "coordinates": [ 126.384409, 34.796221 ] } },
{ "type": "Feature", "properties": { "number": 50, "region": "전라남도 목포시", "address": "전라남도 목포시 양을로143번길 24", "field_4": null, "purpose": "생활방범", "camera_count": 4, "pixel": 200, "information": "산정농협뒷길", "storage_days": 30, "field_10": null, "organ_number": "061-270-8733", "latitude": 34.811392, "longitude": 126.385727, "date": "2023-11-30" }, "geometry": { "type": "Point", "coordinates": [ 126.385727, 34.811392 ] } },
{ "type": "Feature", "properties": { "number": 51, "region": "전라남도 목포시", "address": "전라남도 목포시 용당로252번길 9", "field_4": null, "purpose": "생활방범", "camera_count": 4, "pixel": 200, "information": "용당아파트뒷길", "storage_days": 30, "field_10": null, "organ_number": "061-270-8733", "latitude": 34.809152, "longitude": 126.400091, "date": "2023-11-30" }, "geometry": { "type": "Point", "coordinates": [ 126.400091, 34.809152 ] } },
{ "type": "Feature", "properties": { "number": 52, "region": "전라남도 목포시", "address": "전라남도 목포시 지적로 40", "field_4": null, "purpose": "생활방범", "camera_count": 3, "pixel": 200, "information": "중앙고인근", "storage_days": 30, "field_10": null, "organ_number": "061-270-8733", "latitude": 34.835421, "longitude": 126.426, "date": "2023-11-30" }, "geometry": { "type": "Point", "coordinates": [ 126.426, 34.835421 ] } },
{ "type": "Feature", "properties": { "number": 53, "region": "전라남도 목포시", "address": "전라남도 목포시 대박길 118-10", "field_4": null, "purpose": "생활방범", "camera_count": 4, "pixel": 200, "information": "태흥물산부근", "storage_days": 30, "field_10": null, "organ_number": "061-270-8733", "latitude": 34.8387, "longitude": 126.41727, "date": "2023-11-30" }, "geometry": { "type": "Point", "coordinates": [ 126.41727, 34.8387 ] } },
{ "type": "Feature", "properties": { "number": 54, "region": "전라남도 목포시", "address": "전라남도 목포시 영산로 769-4", "field_4": null, "purpose": "생활방범", "camera_count": 3, "pixel": 200, "information": "아이엠로즈빌부근", "storage_days": 30, "field_10": null, "organ_number": "061-270-8733", "latitude": 34.833557, "longitude": 126.416666, "date": "2023-11-30" }, "geometry": { "type": "Point", "coordinates": [ 126.416666, 34.833557 ] } },
{ "type": "Feature", "properties": { "number": 55, "region": "전라남도 목포시", "address": "전라남도 목포시 입암천북로10번길 18", "field_4": null, "purpose": "생활방범", "camera_count": 3, "pixel": 200, "information": "미래빌라앞", "storage_days": 30, "field_10": null, "organ_number": "061-270-8733", "latitude": 34.79555, "longitude": 126.406808, "date": "2023-11-30" }, "geometry": { "type": "Point", "coordinates": [ 126.406808, 34.79555 ] } },
{ "type": "Feature", "properties": { "number": 56, "region": "전라남도 목포시", "address": "전라남도 목포시 삼각로7번길 7", "field_4": null, "purpose": "생활방범", "camera_count": 4, "pixel": 200, "information": "대화빌앞", "storage_days": 30, "field_10": null, "organ_number": "061-270-8733", "latitude": 34.802787, "longitude": 126.41527, "date": "2023-11-30" }, "geometry": { "type": "Point", "coordinates": [ 126.41527, 34.802787 ] } },
{ "type": "Feature", "properties": { "number": 57, "region": "전라남도 목포시", "address": "전라남도 목포시 용해로 13-1", "field_4": null, "purpose": "생활방범", "camera_count": 5, "pixel": 200, "information": "바닷장어사거리", "storage_days": 30, "field_10": null, "organ_number": "061-270-8733", "latitude": 34.800286, "longitude": 126.395519, "date": "2023-11-30" }, "geometry": { "type": "Point", "coordinates": [ 126.395519, 34.800286 ] } },
{ "type": "Feature", "properties": { "number": 58, "region": "전라남도 목포시", "address": "전라남도 목포시 동부로46번길 21", "field_4": null, "purpose": "생활방범", "camera_count": 4, "pixel": 200, "information": "동목포주택지", "storage_days": 30, "field_10": null, "organ_number": "061-270-8733", "latitude": 34.808577, "longitude": 126.394743, "date": "2023-11-30" }, "geometry": { "type": "Point", "coordinates": [ 126.394743, 34.808577 ] } },
{ "type": "Feature", "properties": { "number": 59, "region": "전라남도 목포시", "address": "전라남도 목포시 청호로219번길 51", "field_4": null, "purpose": "생활방범", "camera_count": 4, "pixel": 200, "information": "북항물양장수협앞", "storage_days": 30, "field_10": null, "organ_number": "061-270-8733", "latitude": 34.805746, "longitude": 126.365753, "date": "2023-11-30" }, "geometry": { "type": "Point", "coordinates": [ 126.365753, 34.805746 ] } },
{ "type": "Feature", "properties": { "number": 60, "region": "전라남도 목포시", "address": "전라남도 목포시 수강로4번길 26", "field_4": null, "purpose": "생활방범", "camera_count": 4, "pixel": 200, "information": "남영건재", "storage_days": 30, "field_10": null, "organ_number": "061-270-8733", "latitude": 34.78704, "longitude": 126.388083, "date": "2023-11-30" }, "geometry": { "type": "Point", "coordinates": [ 126.388083, 34.78704 ] } },
{ "type": "Feature", "properties": { "number": 61, "region": "전라남도 목포시", "address": "전라남도 목포시 둥근섬로 64", "field_4": null, "purpose": "생활방범", "camera_count": 3, "pixel": 200, "information": "근화삼학베아체근처", "storage_days": 30, "field_10": null, "organ_number": "061-270-8733", "latitude": 34.792889, "longitude": 126.3989, "date": "2023-11-30" }, "geometry": { "type": "Point", "coordinates": [ 126.3989, 34.792889 ] } },
{ "type": "Feature", "properties": { "number": 62, "region": "전라남도 목포시", "address": "전라남도 목포시 해안로279번길 10", "field_4": null, "purpose": "생활방범", "camera_count": 5, "pixel": 200, "information": "목포게스트하우스", "storage_days": 30, "field_10": null, "organ_number": "061-270-8733", "latitude": 34.788932, "longitude": 126.390366, "date": "2023-11-30" }, "geometry": { "type": "Point", "coordinates": [ 126.390366, 34.788932 ] } },
{ "type": "Feature", "properties": { "number": 63, "region": "전라남도 목포시", "address": "전라남도 목포시 동명로20번길 19", "field_4": null, "purpose": "생활방범", "camera_count": 4, "pixel": 200, "information": "삼하도목포가앞", "storage_days": 30, "field_10": null, "organ_number": "061-270-8733", "latitude": 34.788669, "longitude": 126.397782, "date": "2023-11-30" }, "geometry": { "type": "Point", "coordinates": [ 126.397782, 34.788669 ] } },
{ "type": "Feature", "properties": { "number": 64, "region": "전라남도 목포시", "address": "전라남도 목포시 남해로 21", "field_4": null, "purpose": "생활방범", "camera_count": 3, "pixel": 200, "information": "4차놀이터", "storage_days": 30, "field_10": null, "organ_number": "061-270-8733", "latitude": 34.790053, "longitude": 126.397784, "date": "2023-11-30" }, "geometry": { "type": "Point", "coordinates": [ 126.397784, 34.790053 ] } },
{ "type": "Feature", "properties": { "number": 65, "region": "전라남도 목포시", "address": "전라남도 목포시 북항로121번길 5", "field_4": null, "purpose": "생활방범", "camera_count": 3, "pixel": 200, "information": "양무리교회", "storage_days": 30, "field_10": null, "organ_number": "061-270-8733", "latitude": 34.800742, "longitude": 126.371373, "date": "2023-11-30" }, "geometry": { "type": "Point", "coordinates": [ 126.371373, 34.800742 ] } },
{ "type": "Feature", "properties": { "number": 66, "region": "전라남도 목포시", "address": "전라남도 목포시 죽교천로 43", "field_4": null, "purpose": "생활방범", "camera_count": 4, "pixel": 200, "information": "대중부동산", "storage_days": 30, "field_10": null, "organ_number": "061-270-8733", "latitude": 34.801339, "longitude": 126.376923, "date": "2023-11-30" }, "geometry": { "type": "Point", "coordinates": [ 126.376923, 34.801339 ] } },
{ "type": "Feature", "properties": { "number": 67, "region": "전라남도 목포시", "address": "전라남도 목포시 연산로59번길 32", "field_4": null, "purpose": "생활방범", "camera_count": 5, "pixel": 200, "information": "용꿈여인숙", "storage_days": 30, "field_10": null, "organ_number": "061-270-8733", "latitude": 34.802525, "longitude": 126.383789, "date": "2023-11-30" }, "geometry": { "type": "Point", "coordinates": [ 126.383789, 34.802525 ] } },
{ "type": "Feature", "properties": { "number": 68, "region": "전라남도 목포시", "address": "전라남도 목포시 양을로33번길 12", "field_4": null, "purpose": "생활방범", "camera_count": 4, "pixel": 200, "information": "대성동성당", "storage_days": 30, "field_10": null, "organ_number": "061-270-8733", "latitude": 34.802043, "longitude": 126.379323, "date": "2023-11-30" }, "geometry": { "type": "Point", "coordinates": [ 126.379323, 34.802043 ] } },
{ "type": "Feature", "properties": { "number": 69, "region": "전라남도 목포시", "address": "전라남도 목포시 연산로 64", "field_4": null, "purpose": "생활방범", "camera_count": 4, "pixel": 200, "information": "현대청호아파트앞", "storage_days": 30, "field_10": null, "organ_number": "061-270-8733", "latitude": 34.804686, "longitude": 126.387225, "date": "2023-11-30" }, "geometry": { "type": "Point", "coordinates": [ 126.387225, 34.804686 ] } },
{ "type": "Feature", "properties": { "number": 70, "region": "전라남도 목포시", "address": "전라남도 목포시 산정로150번길 34", "field_4": null, "purpose": "생활방범", "camera_count": 4, "pixel": 200, "information": "용수슈퍼앞", "storage_days": 30, "field_10": null, "organ_number": "061-270-8733", "latitude": 34.799413, "longitude": 126.394512, "date": "2023-11-30" }, "geometry": { "type": "Point", "coordinates": [ 126.394512, 34.799413 ] } },
{ "type": "Feature", "properties": { "number": 71, "region": "전라남도 목포시", "address": "전라남도 목포시 산정원뚝길 9", "field_4": null, "purpose": "생활방범", "camera_count": 4, "pixel": 200, "information": "연동원뚝길", "storage_days": 30, "field_10": null, "organ_number": "061-270-8733", "latitude": 34.796937, "longitude": 126.391895, "date": "2023-11-30" }, "geometry": { "type": "Point", "coordinates": [ 126.391895, 34.796937 ] } },
{ "type": "Feature", "properties": { "number": 72, "region": "전라남도 목포시", "address": "전라남도 목포시 뚝섬길 12", "field_4": null, "purpose": "생활방범", "camera_count": 3, "pixel": 200, "information": "터진목로주변", "storage_days": 30, "field_10": null, "organ_number": "061-270-8733", "latitude": 34.806294, "longitude": 126.370685, "date": "2023-11-30" }, "geometry": { "type": "Point", "coordinates": [ 126.370685, 34.806294 ] } },
{ "type": "Feature", "properties": { "number": 73, "region": "전라남도 목포시", "address": "전라남도 목포시 신촌로8번길 15", "field_4": null, "purpose": "생활방범", "camera_count": 4, "pixel": 200, "information": "청호웰빙공원", "storage_days": 30, "field_10": null, "organ_number": "061-270-8733", "latitude": 34.807508, "longitude": 126.387405, "date": "2023-11-30" }, "geometry": { "type": "Point", "coordinates": [ 126.387405, 34.807508 ] } },
{ "type": "Feature", "properties": { "number": 74, "region": "전라남도 목포시", "address": "전라남도 목포시 고하대로719번길 21", "field_4": null, "purpose": "생활방범", "camera_count": 3, "pixel": 200, "information": "하나자원옆", "storage_days": 30, "field_10": null, "organ_number": "061-270-8733", "latitude": 34.811977, "longitude": 126.373685, "date": "2023-11-30" }, "geometry": { "type": "Point", "coordinates": [ 126.373685, 34.811977 ] } },
{ "type": "Feature", "properties": { "number": 75, "region": "전라남도 목포시", "address": "전라남도 목포시 해안로259번길 48-3", "field_4": null, "purpose": "생활방범", "camera_count": 3, "pixel": 200, "information": "동산장주변(목포역)", "storage_days": 30, "field_10": null, "organ_number": "061-270-8733", "latitude": 34.79027, "longitude": 126.386402, "date": "2023-11-30" }, "geometry": { "type": "Point", "coordinates": [ 126.386402, 34.79027 ] } },
{ "type": "Feature", "properties": { "number": 76, "region": "전라남도 목포시", "address": "전라남도 목포시 해안로259번길 25-2", "field_4": null, "purpose": "생활방범", "camera_count": 4, "pixel": 200, "information": "미니스톱효성점인근", "storage_days": 30, "field_10": null, "organ_number": "061-270-8733", "latitude": 34.788819, "longitude": 126.387358, "date": "2023-11-30" }, "geometry": { "type": "Point", "coordinates": [ 126.387358, 34.788819 ] } },
{ "type": "Feature", "properties": { "number": 77, "region": "전라남도 목포시", "address": "전라남도 목포시 비파로43번길 28", "field_4": null, "purpose": "생활방범", "camera_count": 4, "pixel": 200, "information": "장미의거리주변", "storage_days": 30, "field_10": null, "organ_number": "061-270-8733", "latitude": 34.801674, "longitude": 126.424224, "date": "2023-11-30" }, "geometry": { "type": "Point", "coordinates": [ 126.424224, 34.801674 ] } },
{ "type": "Feature", "properties": { "number": 78, "region": "전라남도 목포시", "address": "전라남도 목포시 양을로258번길 10", "field_4": null, "purpose": "생활방범", "camera_count": 5, "pixel": 200, "information": "용해하이츠입구", "storage_days": 30, "field_10": null, "organ_number": "061-270-8733", "latitude": 34.81142, "longitude": 126.398175, "date": "2023-11-30" }, "geometry": { "type": "Point", "coordinates": [ 126.398175, 34.81142 ] } },
{ "type": "Feature", "properties": { "number": 79, "region": "전라남도 목포시", "address": "전라남도 목포시 연산백련도 33", "field_4": null, "purpose": "생활방범", "camera_count": 5, "pixel": 200, "information": "백련초하사거리", "storage_days": 30, "field_10": null, "organ_number": "061-270-8733", "latitude": 34.817653, "longitude": 126.390078, "date": "2023-11-30" }, "geometry": { "type": "Point", "coordinates": [ 126.390078, 34.817653 ] } },
{ "type": "Feature", "properties": { "number": 80, "region": "전라남도 목포시", "address": "전라남도 목포시 옥암로96번길 28", "field_4": null, "purpose": "생활방범", "camera_count": 5, "pixel": 200, "information": "목포그릇나라앞", "storage_days": 30, "field_10": null, "organ_number": "061-270-8733", "latitude": 34.808676, "longitude": 126.429155, "date": "2023-11-30" }, "geometry": { "type": "Point", "coordinates": [ 126.429155, 34.808676 ] } },
{ "type": "Feature", "properties": { "number": 81, "region": "전라남도 목포시", "address": "전라남도 목포시 백년대로375번길 25", "field_4": null, "purpose": "생활방범", "camera_count": 5, "pixel": 200, "information": "금호아파트부근", "storage_days": 30, "field_10": null, "organ_number": "061-270-8733", "latitude": 34.80948, "longitude": 126.426162, "date": "2023-11-30" }, "geometry": { "type": "Point", "coordinates": [ 126.426162, 34.80948 ] } },
{ "type": "Feature", "properties": { "number": 82, "region": "전라남도 목포시", "address": "전라남도 목포시 영산로110번길 20", "field_4": null, "purpose": "생활방범", "camera_count": 3, "pixel": 200, "information": "KT주차장삼거리", "storage_days": 30, "field_10": null, "organ_number": "061-270-8733", "latitude": 34.793067, "longitude": 126.387285, "date": "2023-11-30" }, "geometry": { "type": "Point", "coordinates": [ 126.387285, 34.793067 ] } },
{ "type": "Feature", "properties": { "number": 83, "region": "전라남도 목포시", "address": "전라남도 목포시 백년대로280번길 28", "field_4": null, "purpose": "어린이보호", "camera_count": 2, "pixel": 200, "information": "중앙여중앞", "storage_days": 30, "field_10": null, "organ_number": "061-270-8733", "latitude": 34.8009, "longitude": 126.419953, "date": "2023-11-30" }, "geometry": { "type": "Point", "coordinates": [ 126.419953, 34.8009 ] } },
{ "type": "Feature", "properties": { "number": 84, "region": "전라남도 목포시", "address": "전라남도 목포시 백년대로256번길 21-1", "field_4": null, "purpose": "어린이보호", "camera_count": 2, "pixel": 200, "information": "쉼터어린이공원", "storage_days": 30, "field_10": null, "organ_number": "061-270-8733", "latitude": 34.799987, "longitude": 126.417899, "date": "2023-11-30" }, "geometry": { "type": "Point", "coordinates": [ 126.417899, 34.799987 ] } },
{ "type": "Feature", "properties": { "number": 85, "region": "전라남도 목포시", "address": "전라남도 목포시 백년대로255번길 9", "field_4": null, "purpose": "어린이보호", "camera_count": 2, "pixel": 200, "information": "영흥어린이공원", "storage_days": 30, "field_10": null, "organ_number": "061-270-8733", "latitude": 34.802881, "longitude": 126.41597, "date": "2023-11-30" }, "geometry": { "type": "Point", "coordinates": [ 126.41597, 34.802881 ] } },
{ "type": "Feature", "properties": { "number": 86, "region": "전라남도 목포시", "address": "전라남도 목포시 백년대로265번길 22", "field_4": null, "purpose": "어린이보호", "camera_count": 2, "pixel": 200, "information": "영흥중학교후문", "storage_days": 30, "field_10": null, "organ_number": "061-270-8733", "latitude": 34.803852, "longitude": 126.415723, "date": "2023-11-30" }, "geometry": { "type": "Point", "coordinates": [ 126.415723, 34.803852 ] } },
{ "type": "Feature", "properties": { "number": 87, "region": "전라남도 목포시", "address": "전라남도 목포시 섶나루길 66", "field_4": null, "purpose": "어린이보호", "camera_count": 2, "pixel": 200, "information": "소나무식당앞2", "storage_days": 30, "field_10": null, "organ_number": "061-270-8733", "latitude": 34.806431, "longitude": 126.415018, "date": "2023-11-30" }, "geometry": { "type": "Point", "coordinates": [ 126.415018, 34.806431 ] } },
{ "type": "Feature", "properties": { "number": 88, "region": "전라남도 목포시", "address": "전라남도 목포시 섶나루길 48", "field_4": null, "purpose": "어린이보호", "camera_count": 3, "pixel": 200, "information": "소나무식당앞1", "storage_days": 30, "field_10": null, "organ_number": "061-270-8733", "latitude": 34.806123, "longitude": 126.413476, "date": "2023-11-30" }, "geometry": { "type": "Point", "coordinates": [ 126.413476, 34.806123 ] } },
{ "type": "Feature", "properties": { "number": 89, "region": "전라남도 목포시", "address": "전라남도 목포시 하당로214번길 7", "field_4": null, "purpose": "어린이보호", "camera_count": 3, "pixel": 200, "information": "취약지역(비파1차)", "storage_days": 30, "field_10": null, "organ_number": "061-270-8733", "latitude": 34.807646, "longitude": 126.42046, "date": "2023-11-30" }, "geometry": { "type": "Point", "coordinates": [ 126.42046, 34.807646 ] } },
{ "type": "Feature", "properties": { "number": 90, "region": "전라남도 목포시", "address": "전라남도 목포시 하당로221번길 3-2", "field_4": null, "purpose": "어린이보호", "camera_count": 2, "pixel": 200, "information": "하당어린이공원", "storage_days": 30, "field_10": null, "organ_number": "061-270-8733", "latitude": 34.808842, "longitude": 126.419829, "date": "2023-11-30" }, "geometry": { "type": "Point", "coordinates": [ 126.419829, 34.808842 ] } },
{ "type": "Feature", "properties": { "number": 91, "region": "전라남도 목포시", "address": "전라남도 목포시 상동로 19", "field_4": null, "purpose": "어린이보호", "camera_count": 2, "pixel": 200, "information": "중화어린이공원", "storage_days": 30, "field_10": null, "organ_number": "061-270-8733", "latitude": 34.811883, "longitude": 126.415092, "date": "2023-11-30" }, "geometry": { "type": "Point", "coordinates": [ 126.415092, 34.811883 ] } },
{ "type": "Feature", "properties": { "number": 92, "region": "전라남도 목포시", "address": "전라남도 목포시 상동로26번길 14", "field_4": null, "purpose": "어린이보호", "camera_count": 4, "pixel": 200, "information": "푸른어린이공원", "storage_days": 30, "field_10": null, "organ_number": "061-270-8733", "latitude": 34.813516, "longitude": 126.415789, "date": "2023-11-30" }, "geometry": { "type": "Point", "coordinates": [ 126.415789, 34.813516 ] } },
{ "type": "Feature", "properties": { "number": 93, "region": "전라남도 목포시", "address": "전라남도 목포시 하당로221번길 23", "field_4": null, "purpose": "어린이보호", "camera_count": 2, "pixel": 200, "information": "한국병원앞공원", "storage_days": 30, "field_10": null, "organ_number": "061-270-8733", "latitude": 34.809781, "longitude": 126.418285, "date": "2023-11-30" }, "geometry": { "type": "Point", "coordinates": [ 126.418285, 34.809781 ] } },
{ "type": "Feature", "properties": { "number": 94, "region": "전라남도 목포시", "address": "전라남도 목포시 하당남부로 25", "field_4": null, "purpose": "어린이보호", "camera_count": 2, "pixel": 200, "information": "신흥어린이공원", "storage_days": 30, "field_10": null, "organ_number": "061-270-8733", "latitude": 34.799805, "longitude": 126.426259, "date": "2023-11-30" }, "geometry": { "type": "Point", "coordinates": [ 126.426259, 34.799805 ] } },
{ "type": "Feature", "properties": { "number": 95, "region": "전라남도 목포시", "address": "전라남도 목포시 상동로 87-1", "field_4": null, "purpose": "어린이보호", "camera_count": 2, "pixel": 200, "information": "성신고정문옆등산로입구", "storage_days": 30, "field_10": null, "organ_number": "061-270-8733", "latitude": 34.81678, "longitude": 126.409664, "date": "2023-11-30" }, "geometry": { "type": "Point", "coordinates": [ 126.409664, 34.81678 ] } },
{ "type": "Feature", "properties": { "number": 96, "region": "전라남도 목포시", "address": "전라남도 목포시 고하대로630번길 11", "field_4": null, "purpose": "어린이보호", "camera_count": 5, "pixel": 200, "information": "청해어린이공원", "storage_days": 30, "field_10": null, "organ_number": "061-270-8733", "latitude": 34.80367, "longitude": 126.369104, "date": "2023-11-30" }, "geometry": { "type": "Point", "coordinates": [ 126.369104, 34.80367 ] } },
{ "type": "Feature", "properties": { "number": 97, "region": "전라남도 목포시", "address": "전라남도 목포시 원산로69번길 7-2", "field_4": null, "purpose": "어린이보호", "camera_count": 3, "pixel": 200, "information": "한성어린이공원", "storage_days": 30, "field_10": null, "organ_number": "061-270-8733", "latitude": 34.805625, "longitude": 126.375251, "date": "2023-11-30" }, "geometry": { "type": "Point", "coordinates": [ 126.375251, 34.805625 ] } },
{ "type": "Feature", "properties": { "number": 98, "region": "전라남도 목포시", "address": "전라남도 목포시 원산로59번길 35-1", "field_4": null, "purpose": "어린이보호", "camera_count": 3, "pixel": 200, "information": "온누리어린이공원", "storage_days": 30, "field_10": null, "organ_number": "061-270-8733", "latitude": 34.807646, "longitude": 126.372858, "date": "2023-11-30" }, "geometry": { "type": "Point", "coordinates": [ 126.372858, 34.807646 ] } },
{ "type": "Feature", "properties": { "number": 99, "region": "전라남도 목포시", "address": "전라남도 목포시 죽산로19번길 7-1", "field_4": null, "purpose": "어린이보호", "camera_count": 2, "pixel": 200, "information": "도서관어린이공원", "storage_days": 30, "field_10": null, "organ_number": "061-270-8733", "latitude": 34.807901, "longitude": 126.376414, "date": "2023-11-30" }, "geometry": { "type": "Point", "coordinates": [ 126.376414, 34.807901 ] } },
{ "type": "Feature", "properties": { "number": 100, "region": "전라남도 목포시", "address": "전라남도 목포시 죽산로40번길 11", "field_4": null, "purpose": "어린이보호", "camera_count": 2, "pixel": 200, "information": "상아어린이공원", "storage_days": 30, "field_10": null, "organ_number": "061-270-8733", "latitude": 34.810558, "longitude": 126.376429, "date": "2023-11-30" }, "geometry": { "type": "Point", "coordinates": [ 126.376429, 34.810558 ] } },
{ "type": "Feature", "properties": { "number": 101, "region": "전라남도 목포시", "address": "전라남도 목포시 원산정로 56-1", "field_4": null, "purpose": "어린이보호", "camera_count": 3, "pixel": 200, "information": "서해어린이공원", "storage_days": 30, "field_10": null, "organ_number": "061-270-8733", "latitude": 34.809787, "longitude": 126.380083, "date": "2023-11-30" }, "geometry": { "type": "Point", "coordinates": [ 126.380083, 34.809787 ] } },
{ "type": "Feature", "properties": { "number": 102, "region": "전라남도 목포시", "address": "전라남도 목포시 북항주택로26번길 13-3", "field_4": null, "purpose": "어린이보호", "camera_count": 2, "pixel": 200, "information": "북산어린이공원", "storage_days": 30, "field_10": null, "organ_number": "061-270-8733", "latitude": 34.802243, "longitude": 126.376656, "date": "2023-11-30" }, "geometry": { "type": "Point", "coordinates": [ 126.376656, 34.802243 ] } },
{ "type": "Feature", "properties": { "number": 103, "region": "전라남도 목포시", "address": "전라남도 목포시 북항주택로6번길 6-1", "field_4": null, "purpose": "어린이보호", "camera_count": 1, "pixel": 200, "information": "북항어린이공원", "storage_days": 30, "field_10": null, "organ_number": "061-270-8733", "latitude": 34.803287, "longitude": 126.374475, "date": "2023-11-30" }, "geometry": { "type": "Point", "coordinates": [ 126.374475, 34.803287 ] } },
{ "type": "Feature", "properties": { "number": 104, "region": "전라남도 목포시", "address": "전라남도 목포시 북항주택로 20", "field_4": null, "purpose": "어린이보호", "camera_count": 2, "pixel": 200, "information": "홍일어린이공원", "storage_days": 30, "field_10": null, "organ_number": "061-270-8733", "latitude": 34.802923, "longitude": 126.375955, "date": "2023-11-30" }, "geometry": { "type": "Point", "coordinates": [ 126.375955, 34.802923 ] } },
{ "type": "Feature", "properties": { "number": 105, "region": "전라남도 목포시", "address": "전라남도 목포시 용당로5번길 7", "field_4": null, "purpose": "어린이보호", "camera_count": 2, "pixel": 200, "information": "삼학어린이공원", "storage_days": 30, "field_10": null, "organ_number": "061-270-8733", "latitude": 34.788309, "longitude": 126.401055, "date": "2023-11-30" }, "geometry": { "type": "Point", "coordinates": [ 126.401055, 34.788309 ] } },
{ "type": "Feature", "properties": { "number": 106, "region": "전라남도 목포시", "address": "전라남도 목포시 삼학로113번길 22", "field_4": null, "purpose": "어린이보호", "camera_count": 2, "pixel": 200, "information": "남해어린이공원", "storage_days": 30, "field_10": null, "organ_number": "061-270-8733", "latitude": 34.789385, "longitude": 126.39657, "date": "2023-11-30" }, "geometry": { "type": "Point", "coordinates": [ 126.39657, 34.789385 ] } },
{ "type": "Feature", "properties": { "number": 107, "region": "전라남도 목포시", "address": "전라남도 목포시 남해로 23", "field_4": null, "purpose": "어린이보호", "camera_count": 2, "pixel": 200, "information": "동명어린이공원", "storage_days": 30, "field_10": null, "organ_number": "061-270-8733", "latitude": 34.789961, "longitude": 126.398132, "date": "2023-11-30" }, "geometry": { "type": "Point", "coordinates": [ 126.398132, 34.789961 ] } },
{ "type": "Feature", "properties": { "number": 108, "region": "전라남도 목포시", "address": "전라남도 목포시 남해로11번길 5-1", "field_4": null, "purpose": "어린이보호", "camera_count": 4, "pixel": 200, "information": "새빛어린이공원", "storage_days": 30, "field_10": null, "organ_number": "061-270-8733", "latitude": 34.790906, "longitude": 126.396819, "date": "2023-11-30" }, "geometry": { "type": "Point", "coordinates": [ 126.396819, 34.790906 ] } },
{ "type": "Feature", "properties": { "number": 109, "region": "전라남도 목포시", "address": "전라남도 목포시 동명주택길31번길 9-5", "field_4": null, "purpose": "어린이보호", "camera_count": 2, "pixel": 200, "information": "자명어린이공원", "storage_days": 30, "field_10": null, "organ_number": "061-270-8733", "latitude": 34.792641, "longitude": 126.396608, "date": "2023-11-30" }, "geometry": { "type": "Point", "coordinates": [ 126.396608, 34.792641 ] } },
{ "type": "Feature", "properties": { "number": 110, "region": "전라남도 목포시", "address": "전라남도 목포시 신촌로 27", "field_4": null, "purpose": "어린이보호", "camera_count": 3, "pixel": 200, "information": "청호공원2", "storage_days": 30, "field_10": null, "organ_number": "061-270-8733", "latitude": 34.807683, "longitude": 126.387122, "date": "2023-11-30" }, "geometry": { "type": "Point", "coordinates": [ 126.387122, 34.807683 ] } },
{ "type": "Feature", "properties": { "number": 111, "region": "전라남도 목포시", "address": "전라남도 목포시 신촌로8번길 11", "field_4": null, "purpose": "어린이보호", "camera_count": 2, "pixel": 200, "information": "청호공원1", "storage_days": 30, "field_10": null, "organ_number": "061-270-8733", "latitude": 34.807283, "longitude": 126.387123, "date": "2023-11-30" }, "geometry": { "type": "Point", "coordinates": [ 126.387123, 34.807283 ] } },
{ "type": "Feature", "properties": { "number": 112, "region": "전라남도 목포시", "address": "전라남도 목포시 보리마당로22번길 24-1", "field_4": null, "purpose": "어린이보호", "camera_count": 4, "pixel": 200, "information": "보리마당놀이터", "storage_days": 30, "field_10": null, "organ_number": "061-270-8733", "latitude": 34.783001, "longitude": 126.377498, "date": "2023-11-30" }, "geometry": { "type": "Point", "coordinates": [ 126.377498, 34.783001 ] } },
{ "type": "Feature", "properties": { "number": 113, "region": "전라남도 목포시", "address": "전라남도 목포시 용두로18번길 37", "field_4": null, "purpose": "어린이보호", "camera_count": 3, "pixel": 200, "information": "고양이보호연합회앞", "storage_days": 30, "field_10": null, "organ_number": "061-270-8733", "latitude": 34.800763, "longitude": 126.401973, "date": "2023-11-30" }, "geometry": { "type": "Point", "coordinates": [ 126.401973, 34.800763 ] } },
{ "type": "Feature", "properties": { "number": 114, "region": "전라남도 목포시", "address": "전라남도 목포시 대양로81번길 17", "field_4": null, "purpose": "어린이보호", "camera_count": 3, "pixel": 200, "information": "신동가든주변", "storage_days": 30, "field_10": null, "organ_number": "061-270-8733", "latitude": 34.821625, "longitude": 126.389507, "date": "2023-11-30" }, "geometry": { "type": "Point", "coordinates": [ 126.389507, 34.821625 ] } },
{ "type": "Feature", "properties": { "number": 115, "region": "전라남도 목포시", "address": "전라남도 목포시 대양로81번길 5", "field_4": null, "purpose": "어린이보호", "camera_count": 3, "pixel": 200, "information": "토마토미술어린이집앞", "storage_days": 30, "field_10": null, "organ_number": "061-270-8733", "latitude": 34.82206, "longitude": 126.389575, "date": "2023-11-30" }, "geometry": { "type": "Point", "coordinates": [ 126.389575, 34.82206 ] } },
{ "type": "Feature", "properties": { "number": 116, "region": "전라남도 목포시", "address": "전라남도 목포시 삼향천로91번길 2", "field_4": null, "purpose": "어린이보호", "camera_count": 4, "pixel": 200, "information": "그림숲어린이집", "storage_days": 30, "field_10": null, "organ_number": "061-270-8733", "latitude": 34.808149, "longitude": 126.430708, "date": "2023-11-30" }, "geometry": { "type": "Point", "coordinates": [ 126.430708, 34.808149 ] } },
{ "type": "Feature", "properties": { "number": 117, "region": "전라남도 목포시", "address": "전라남도 목포시 교육로 77", "field_4": null, "purpose": "어린이보호", "camera_count": 4, "pixel": 200, "information": "엔젤어린이집", "storage_days": 30, "field_10": null, "organ_number": "061-270-8733", "latitude": 34.803754, "longitude": 126.419201, "date": "2023-11-30" }, "geometry": { "type": "Point", "coordinates": [ 126.419201, 34.803754 ] } },
{ "type": "Feature", "properties": { "number": 118, "region": "전라남도 목포시", "address": "전라남도 목포시 삼향천로 118", "field_4": null, "purpose": "생활방범", "camera_count": 2, "pixel": 200, "information": "삼향천3", "storage_days": 30, "field_10": null, "organ_number": "061-270-8733", "latitude": 34.810972, "longitude": 126.429275, "date": "2023-11-30" }, "geometry": { "type": "Point", "coordinates": [ 126.429275, 34.810972 ] } },
{ "type": "Feature", "properties": { "number": 119, "region": "전라남도 목포시", "address": "전라남도 목포시 녹색로134번길 11", "field_4": null, "purpose": "생활방범", "camera_count": 2, "pixel": 200, "information": "삼향천2", "storage_days": 30, "field_10": null, "organ_number": "061-270-8733", "latitude": 34.813984, "longitude": 126.428293, "date": "2023-11-30" }, "geometry": { "type": "Point", "coordinates": [ 126.428293, 34.813984 ] } },
{ "type": "Feature", "properties": { "number": 120, "region": "전라남도 목포시", "address": "전라남도 목포시 녹색로 126", "field_4": null, "purpose": "생활방범", "camera_count": 2, "pixel": 200, "information": "삼향천1", "storage_days": 30, "field_10": null, "organ_number": "061-270-8733", "latitude": 34.815492, "longitude": 126.427573, "date": "2023-11-30" }, "geometry": { "type": "Point", "coordinates": [ 126.427573, 34.815492 ] } },
{ "type": "Feature", "properties": { "number": 121, "region": "전라남도 목포시", "address": "전라남도 목포시 마인계터로25번길 8", "field_4": null, "purpose": "생활방범", "camera_count": 2, "pixel": 200, "information": "마인계터2", "storage_days": 30, "field_10": null, "organ_number": "061-270-8733", "latitude": 34.791673, "longitude": 126.381786, "date": "2023-11-30" }, "geometry": { "type": "Point", "coordinates": [ 126.381786, 34.791673 ] } },
{ "type": "Feature", "properties": { "number": 122, "region": "전라남도 목포시", "address": "전라남도 목포시 차범석길 34-3", "field_4": null, "purpose": "생활방범", "camera_count": 5, "pixel": 200, "information": "마인계터1", "storage_days": 30, "field_10": null, "organ_number": "061-270-8733", "latitude": 34.792541, "longitude": 126.381078, "date": "2023-11-30" }, "geometry": { "type": "Point", "coordinates": [ 126.381078, 34.792541 ] } },
{ "type": "Feature", "properties": { "number": 123, "region": "전라남도 목포시", "address": "전라남도 목포시 삼학로341번길 3", "field_4": null, "purpose": "생활방범", "camera_count": 4, "pixel": 200, "information": "농어촌마을(자담치킨인근)", "storage_days": 30, "field_10": null, "organ_number": "061-270-8733", "latitude": 34.801266, "longitude": 126.408276, "date": "2023-11-30" }, "geometry": { "type": "Point", "coordinates": [ 126.408276, 34.801266 ] } },
{ "type": "Feature", "properties": { "number": 124, "region": "전라남도 목포시", "address": "전라남도 목포시 섶나루길 11", "field_4": null, "purpose": "어린이보호", "camera_count": 3, "pixel": 200, "information": "라이프아파트2차앞광장", "storage_days": 30, "field_10": null, "organ_number": "061-270-8733", "latitude": 34.805919, "longitude": 126.410541, "date": "2023-11-30" }, "geometry": { "type": "Point", "coordinates": [ 126.410541, 34.805919 ] } },
{ "type": "Feature", "properties": { "number": 125, "region": "전라남도 목포시", "address": "전라남도 목포시 영산로 610", "field_4": null, "purpose": "어린이보호", "camera_count": 3, "pixel": 200, "information": "대성사랑으로아파트뒤", "storage_days": 30, "field_10": null, "organ_number": "061-270-8733", "latitude": 34.819055, "longitude": 126.423706, "date": "2023-11-30" }, "geometry": { "type": "Point", "coordinates": [ 126.423706, 34.819055 ] } },
{ "type": "Feature", "properties": { "number": 126, "region": "전라남도 목포시", "address": "전라남도 목포시 남악로162번길 24-29", "field_4": null, "purpose": "어린이보호", "camera_count": 8, "pixel": 200, "information": "옥암수변(동)", "storage_days": 30, "field_10": null, "organ_number": "061-270-8733", "latitude": 34.802861, "longitude": 126.458274, "date": "2023-11-30" }, "geometry": { "type": "Point", "coordinates": [ 126.458274, 34.802861 ] } },
{ "type": "Feature", "properties": { "number": 127, "region": "전라남도 목포시", "address": "전라남도 목포시 남악로58번길 18", "field_4": null, "purpose": "어린이보호", "camera_count": 10, "pixel": 200, "information": "옥암수변(서)", "storage_days": 30, "field_10": null, "organ_number": "061-270-8733", "latitude": 34.80292, "longitude": 126.445976, "date": "2023-11-30" }, "geometry": { "type": "Point", "coordinates": [ 126.445976, 34.80292 ] } },
{ "type": "Feature", "properties": { "number": 128, "region": "전라남도 목포시", "address": "전라남도 목포시 남악1로42번길 53", "field_4": null, "purpose": "어린이보호", "camera_count": 3, "pixel": 200, "information": "부주근린공원2-1", "storage_days": 30, "field_10": null, "organ_number": "061-270-8733", "latitude": 34.810522, "longitude": 126.451214, "date": "2023-11-30" }, "geometry": { "type": "Point", "coordinates": [ 126.451214, 34.810522 ] } },
{ "type": "Feature", "properties": { "number": 129, "region": "전라남도 목포시", "address": "전라남도 목포시 남악1로42번길 53", "field_4": null, "purpose": "어린이보호", "camera_count": 3, "pixel": 200, "information": "부주근린공원1-1", "storage_days": 30, "field_10": null, "organ_number": "061-270-8733", "latitude": 34.810594, "longitude": 126.451457, "date": "2023-11-30" }, "geometry": { "type": "Point", "coordinates": [ 126.451457, 34.810594 ] } },
{ "type": "Feature", "properties": { "number": 130, "region": "전라남도 목포시", "address": "전라남도 목포시 남농로 33-21", "field_4": null, "purpose": "어린이보호", "camera_count": 2, "pixel": 200, "information": "남항공원", "storage_days": 30, "field_10": null, "organ_number": "061-270-8733", "latitude": 34.793343, "longitude": 126.411792, "date": "2023-11-30" }, "geometry": { "type": "Point", "coordinates": [ 126.411792, 34.793343 ] } },
{ "type": "Feature", "properties": { "number": 131, "region": "전라남도 목포시", "address": "전라남도 목포시 둥근섬로 114", "field_4": null, "purpose": "어린이보호", "camera_count": 3, "pixel": 200, "information": "왕자공원", "storage_days": 30, "field_10": null, "organ_number": "061-270-8733", "latitude": 34.797646, "longitude": 126.399019, "date": "2023-11-30" }, "geometry": { "type": "Point", "coordinates": [ 126.399019, 34.797646 ] } },
{ "type": "Feature", "properties": { "number": 132, "region": "전라남도 목포시", "address": "전라남도 목포시 청로로219번길 34-22", "field_4": null, "purpose": "어린이보호", "camera_count": 2, "pixel": 200, "information": "노을공원", "storage_days": 30, "field_10": null, "organ_number": "061-270-8733", "latitude": 34.80923, "longitude": 126.366231, "date": "2023-11-30" }, "geometry": { "type": "Point", "coordinates": [ 126.366231, 34.80923 ] } },
{ "type": "Feature", "properties": { "number": 133, "region": "전라남도 목포시", "address": "전라남도 목포시 연산백련로31번길 14", "field_4": null, "purpose": "어린이보호", "camera_count": 2, "pixel": 200, "information": "백련근린공원2", "storage_days": 30, "field_10": null, "organ_number": "061-270-8733", "latitude": 34.815841, "longitude": 126.389017, "date": "2023-11-30" }, "geometry": { "type": "Point", "coordinates": [ 126.389017, 34.815841 ] } },
{ "type": "Feature", "properties": { "number": 134, "region": "전라남도 목포시", "address": "전라남도 목포시 연산백련로1번길 8-13", "field_4": null, "purpose": "어린이보호", "camera_count": 2, "pixel": 200, "information": "향기어린이공원", "storage_days": 30, "field_10": null, "organ_number": "061-270-8733", "latitude": 34.816175, "longitude": 126.391851, "date": "2023-11-30" }, "geometry": { "type": "Point", "coordinates": [ 126.391851, 34.816175 ] } },
{ "type": "Feature", "properties": { "number": 135, "region": "전라남도 목포시", "address": "전라남도 목포시 산대로78번길 14-1", "field_4": null, "purpose": "어린이보호", "camera_count": 2, "pixel": 200, "information": "대성공원", "storage_days": 30, "field_10": null, "organ_number": "061-270-8733", "latitude": 34.802203, "longitude": 126.385064, "date": "2023-11-30" }, "geometry": { "type": "Point", "coordinates": [ 126.385064, 34.802203 ] } },
{ "type": "Feature", "properties": { "number": 136, "region": "전라남도 목포시", "address": "전라남도 목포시 산정로199번길 25", "field_4": null, "purpose": "어린이보호", "camera_count": 2, "pixel": 200, "information": "산정공원", "storage_days": 30, "field_10": null, "organ_number": "061-270-8733", "latitude": 34.804542, "longitude": 126.388464, "date": "2023-11-30" }, "geometry": { "type": "Point", "coordinates": [ 126.388464, 34.804542 ] } },
{ "type": "Feature", "properties": { "number": 137, "region": "전라남도 목포시", "address": "전라남도 목포시 만호로29번길 13", "field_4": null, "purpose": "어린이보호", "camera_count": 8, "pixel": 200, "information": "만호진역사공원", "storage_days": 30, "field_10": null, "organ_number": "061-270-8733", "latitude": 34.785581, "longitude": 126.383464, "date": "2023-11-30" }, "geometry": { "type": "Point", "coordinates": [ 126.383464, 34.785581 ] } },
{ "type": "Feature", "properties": { "number": 138, "region": "전라남도 목포시", "address": "전라남도 목포시 용당로263번길 11", "field_4": null, "purpose": "어린이보호", "camera_count": 2, "pixel": 200, "information": "동목포공원2", "storage_days": 30, "field_10": null, "organ_number": "061-270-8733", "latitude": 34.810376, "longitude": 126.397487, "date": "2023-11-30" }, "geometry": { "type": "Point", "coordinates": [ 126.397487, 34.810376 ] } },
{ "type": "Feature", "properties": { "number": 139, "region": "전라남도 목포시", "address": "전라남도 목포시 삽진산단로 46", "field_4": null, "purpose": "어린이보호", "camera_count": 2, "pixel": 200, "information": "삽진공원", "storage_days": 30, "field_10": null, "organ_number": "061-270-8733", "latitude": 34.823618, "longitude": 126.381412, "date": "2023-11-30" }, "geometry": { "type": "Point", "coordinates": [ 126.381412, 34.823618 ] } },
{ "type": "Feature", "properties": { "number": 140, "region": "전라남도 목포시", "address": "전라남도 목포시 신흥로 27", "field_4": null, "purpose": "어린이보호", "camera_count": 2, "pixel": 200, "information": "동아어린이공원", "storage_days": 30, "field_10": null, "organ_number": "061-270-8733", "latitude": 34.802939, "longitude": 126.423453, "date": "2023-11-30" }, "geometry": { "type": "Point", "coordinates": [ 126.423453, 34.802939 ] } },
{ "type": "Feature", "properties": { "number": 141, "region": "전라남도 목포시", "address": "전라남도 목포시 도룡길 51-1", "field_4": null, "purpose": "어린이보호", "camera_count": 4, "pixel": 200, "information": "목포어린이공원", "storage_days": 30, "field_10": null, "organ_number": "061-270-8733", "latitude": 34.823624, "longitude": 126.417492, "date": "2023-11-30" }, "geometry": { "type": "Point", "coordinates": [ 126.417492, 34.823624 ] } },
{ "type": "Feature", "properties": { "number": 142, "region": "전라남도 목포시", "address": "전라남도 목포시 남악1로 51, (111동 뒷편)", "field_4": null, "purpose": "어린이보호", "camera_count": 2, "pixel": 200, "information": "부주공원(녹지지역)", "storage_days": 30, "field_10": null, "organ_number": "061-270-8733", "latitude": 34.808362, "longitude": 126.44503, "date": "2023-11-30" }, "geometry": { "type": "Point", "coordinates": [ 126.44503, 34.808362 ] } },
{ "type": "Feature", "properties": { "number": 143, "region": "전라남도 목포시", "address": "전라남도 목포시 도룡길5번길 11", "field_4": null, "purpose": "어린이보호", "camera_count": 2, "pixel": 200, "information": "석현공원", "storage_days": 30, "field_10": null, "organ_number": "061-270-8733", "latitude": 34.82511, "longitude": 126.421176, "date": "2023-11-30" }, "geometry": { "type": "Point", "coordinates": [ 126.421176, 34.82511 ] } },
{ "type": "Feature", "properties": { "number": 144, "region": "전라남도 목포시", "address": "전라남도 목포시 삼향천로 23", "field_4": null, "purpose": "어린이보호", "camera_count": 2, "pixel": 200, "information": "달맞이공원", "storage_days": 30, "field_10": null, "organ_number": "061-270-8733", "latitude": 34.803624, "longitude": 126.434313, "date": "2023-11-30" }, "geometry": { "type": "Point", "coordinates": [ 126.434313, 34.803624 ] } },
{ "type": "Feature", "properties": { "number": 145, "region": "전라남도 목포시", "address": "전라남도 목포시 장미로 67", "field_4": null, "purpose": "어린이보호", "camera_count": 2, "pixel": 200, "information": "사랑의연못", "storage_days": 30, "field_10": null, "organ_number": "061-270-8733", "latitude": 34.803672, "longitude": 126.427973, "date": "2023-11-30" }, "geometry": { "type": "Point", "coordinates": [ 126.427973, 34.803672 ] } },
{ "type": "Feature", "properties": { "number": 146, "region": "전라남도 목포시", "address": "전라남도 목포시 옥암로 168-14", "field_4": null, "purpose": "어린이보호", "camera_count": 2, "pixel": 200, "information": "석현어린이공원", "storage_days": 30, "field_10": null, "organ_number": "061-270-8733", "latitude": 34.813736, "longitude": 126.42438, "date": "2023-11-30" }, "geometry": { "type": "Point", "coordinates": [ 126.42438, 34.813736 ] } },
{ "type": "Feature", "properties": { "number": 147, "region": "전라남도 목포시", "address": "전라남도 목포시 삼향천로 38", "field_4": null, "purpose": "어린이보호", "camera_count": 2, "pixel": 200, "information": "둥근공원", "storage_days": 30, "field_10": null, "organ_number": "061-270-8733", "latitude": 34.805094, "longitude": 126.433811, "date": "2023-11-30" }, "geometry": { "type": "Point", "coordinates": [ 126.433811, 34.805094 ] } },
{ "type": "Feature", "properties": { "number": 148, "region": "전라남도 목포시", "address": "전라남도 목포시 중화길 32-2", "field_4": null, "purpose": "어린이보호", "camera_count": 3, "pixel": 200, "information": "중화마을소공원", "storage_days": 30, "field_10": null, "organ_number": "061-270-8733", "latitude": 34.810558, "longitude": 126.416333, "date": "2023-11-30" }, "geometry": { "type": "Point", "coordinates": [ 126.416333, 34.810558 ] } },
{ "type": "Feature", "properties": { "number": 149, "region": "전라남도 목포시", "address": "전라남도 목포시 원산로45번길 22-1", "field_4": null, "purpose": "어린이보호", "camera_count": 3, "pixel": 200, "information": "어울림공원", "storage_days": 30, "field_10": null, "organ_number": "061-270-8733", "latitude": 34.805651, "longitude": 126.372592, "date": "2023-11-30" }, "geometry": { "type": "Point", "coordinates": [ 126.372592, 34.805651 ] } },
{ "type": "Feature", "properties": { "number": 150, "region": "전라남도 목포시", "address": "전라남도 목포시 영산로 528", "field_4": null, "purpose": "어린이보호", "camera_count": 2, "pixel": 200, "information": "이로공원", "storage_days": 30, "field_10": null, "organ_number": "061-270-8733", "latitude": 34.811615, "longitude": 126.418247, "date": "2023-11-30" }, "geometry": { "type": "Point", "coordinates": [ 126.418247, 34.811615 ] } },
{ "type": "Feature", "properties": { "number": 151, "region": "전라남도 목포시", "address": "전라남도 목포시 연산백련로31번길 14", "field_4": null, "purpose": "어린이보호", "camera_count": 2, "pixel": 200, "information": "백련근린공원1", "storage_days": 30, "field_10": null, "organ_number": "061-270-8733", "latitude": 34.816566, "longitude": 126.389812, "date": "2023-11-30" }, "geometry": { "type": "Point", "coordinates": [ 126.389812, 34.816566 ] } },
{ "type": "Feature", "properties": { "number": 152, "region": "전라남도 목포시", "address": "전라남도 목포시 용당로266번길 10", "field_4": null, "purpose": "어린이보호", "camera_count": 2, "pixel": 200, "information": "동목포공원3", "storage_days": 30, "field_10": null, "organ_number": "061-270-8733", "latitude": 34.810343, "longitude": 126.400084, "date": "2023-11-30" }, "geometry": { "type": "Point", "coordinates": [ 126.400084, 34.810343 ] } },
{ "type": "Feature", "properties": { "number": 153, "region": "전라남도 목포시", "address": "전라남도 목포시 남악1로52번길 83", "field_4": null, "purpose": "어린이보호", "camera_count": 6, "pixel": 200, "information": "회룡공원", "storage_days": 30, "field_10": null, "organ_number": "061-270-8733", "latitude": 34.812086, "longitude": 126.452027, "date": "2023-11-30" }, "geometry": { "type": "Point", "coordinates": [ 126.452027, 34.812086 ] } },
{ "type": "Feature", "properties": { "number": 154, "region": "전라남도 목포시", "address": "전라남도 목포시 남농로 102", "field_4": null, "purpose": "어린이보호", "camera_count": 2, "pixel": 200, "information": "갓바위공원", "storage_days": 30, "field_10": null, "organ_number": "061-270-8733", "latitude": 34.791417, "longitude": 126.419189, "date": "2023-11-30" }, "geometry": { "type": "Point", "coordinates": [ 126.419189, 34.791417 ] } },
{ "type": "Feature", "properties": { "number": 155, "region": "전라남도 목포시", "address": "전라남도 목포시 내동길19번길 1", "field_4": null, "purpose": "어린이보호", "camera_count": 2, "pixel": 200, "information": "선덕사입구", "storage_days": 30, "field_10": null, "organ_number": "061-270-8733", "latitude": 34.806818, "longitude": 126.406855, "date": "2023-11-30" }, "geometry": { "type": "Point", "coordinates": [ 126.406855, 34.806818 ] } },
{ "type": "Feature", "properties": { "number": 156, "region": "전라남도 목포시", "address": "전라남도 목포시 다순구미로 12", "field_4": null, "purpose": "어린이보호", "camera_count": 3, "pixel": 200, "information": "제8호어린이공원", "storage_days": 30, "field_10": null, "organ_number": "061-270-8733", "latitude": 34.782895, "longitude": 126.378656, "date": "2023-11-30" }, "geometry": { "type": "Point", "coordinates": [ 126.378656, 34.782895 ] } },
{ "type": "Feature", "properties": { "number": 157, "region": "전라남도 목포시", "address": "전라남도 목포시 부주로 312", "field_4": null, "purpose": "어린이보호", "camera_count": 3, "pixel": 200, "information": "시민문화체육센터", "storage_days": 30, "field_10": null, "organ_number": "061-270-8733", "latitude": 34.811528, "longitude": 126.436484, "date": "2023-11-30" }, "geometry": { "type": "Point", "coordinates": [ 126.436484, 34.811528 ] } },
{ "type": "Feature", "properties": { "number": 158, "region": "전라남도 목포시", "address": "전라남도 목포시 녹색로 139", "field_4": null, "purpose": "어린이보호", "camera_count": 2, "pixel": 200, "information": "부주산일주도로입구", "storage_days": 30, "field_10": null, "organ_number": "061-270-8733", "latitude": 34.813513, "longitude": 126.430595, "date": "2023-11-30" }, "geometry": { "type": "Point", "coordinates": [ 126.430595, 34.813513 ] } },
{ "type": "Feature", "properties": { "number": 159, "region": "전라남도 목포시", "address": "전라남도 목포시 송도길 24", "field_4": null, "purpose": "생활방범", "camera_count": 4, "pixel": 200, "information": "목포건어물젓갈센터앞", "storage_days": 30, "field_10": null, "organ_number": "061-270-8733", "latitude": 34.78903, "longitude": 126.388818, "date": "2023-11-30" }, "geometry": { "type": "Point", "coordinates": [ 126.388818, 34.78903 ] } },
{ "type": "Feature", "properties": { "number": 160, "region": "전라남도 목포시", "address": "전라남도 목포시 백년대로83번길 23", "field_4": null, "purpose": "생활방범", "camera_count": 4, "pixel": 200, "information": "이랜드복지회관주변", "storage_days": 30, "field_10": null, "organ_number": "061-270-8733", "latitude": 34.801232, "longitude": 126.398595, "date": "2023-11-30" }, "geometry": { "type": "Point", "coordinates": [ 126.398595, 34.801232 ] } },
{ "type": "Feature", "properties": { "number": 161, "region": "전라남도 목포시", "address": "전라남도 목포시 터진목로34번길 2", "field_4": null, "purpose": "생활방범", "camera_count": 4, "pixel": 200, "information": "차관주택관통로", "storage_days": 30, "field_10": null, "organ_number": "061-270-8733", "latitude": 34.805806, "longitude": 126.371361, "date": "2023-11-30" }, "geometry": { "type": "Point", "coordinates": [ 126.371361, 34.805806 ] } },
{ "type": "Feature", "properties": { "number": 162, "region": "전라남도 목포시", "address": "전라남도 목포시 양을로 1", "field_4": null, "purpose": "생활방범", "camera_count": 4, "pixel": 200, "information": "죽교동교차로", "storage_days": 30, "field_10": null, "organ_number": "061-270-8733", "latitude": 34.799994, "longitude": 126.376487, "date": "2023-11-30" }, "geometry": { "type": "Point", "coordinates": [ 126.376487, 34.799994 ] } },
{ "type": "Feature", "properties": { "number": 163, "region": "전라남도 목포시", "address": "전라남도 목포시 텃골로13번길 57", "field_4": null, "purpose": "생활방범", "camera_count": 2, "pixel": 200, "information": "금호어울림101동앞", "storage_days": 30, "field_10": null, "organ_number": "061-270-8733", "latitude": 34.81798, "longitude": 126.419209, "date": "2023-11-30" }, "geometry": { "type": "Point", "coordinates": [ 126.419209, 34.81798 ] } },
{ "type": "Feature", "properties": { "number": 164, "region": "전라남도 목포시", "address": "전라남도 목포시 텃골로 30", "field_4": null, "purpose": "생활방범", "camera_count": 3, "pixel": 200, "information": "새목포제일교회앞", "storage_days": 30, "field_10": null, "organ_number": "061-270-8733", "latitude": 34.822804, "longitude": 126.420828, "date": "2023-11-30" }, "geometry": { "type": "Point", "coordinates": [ 126.420828, 34.822804 ] } },
{ "type": "Feature", "properties": { "number": 165, "region": "전라남도 목포시", "address": "전라남도 목포시 백년대로323번길 17", "field_4": null, "purpose": "생활방범", "camera_count": 4, "pixel": 200, "information": "비파2차203동앞", "storage_days": 30, "field_10": null, "organ_number": "061-270-8733", "latitude": 34.806529, "longitude": 126.421672, "date": "2023-11-30" }, "geometry": { "type": "Point", "coordinates": [ 126.421672, 34.806529 ] } },
{ "type": "Feature", "properties": { "number": 166, "region": "전라남도 목포시", "address": "전라남도 목포시 용샘길 15", "field_4": null, "purpose": "생활방범", "camera_count": 4, "pixel": 200, "information": "용샘경로당", "storage_days": 30, "field_10": null, "organ_number": "061-270-8733", "latitude": 34.804296, "longitude": 126.399664, "date": "2023-11-30" }, "geometry": { "type": "Point", "coordinates": [ 126.399664, 34.804296 ] } },
{ "type": "Feature", "properties": { "number": 167, "region": "전라남도 목포시", "address": "전라남도 목포시 산대로78번길 1", "field_4": null, "purpose": "생활방범", "camera_count": 4, "pixel": 200, "information": "등대식육식당", "storage_days": 30, "field_10": null, "organ_number": "061-270-8733", "latitude": 34.800957, "longitude": 126.385886, "date": "2023-11-30" }, "geometry": { "type": "Point", "coordinates": [ 126.385886, 34.800957 ] } },
{ "type": "Feature", "properties": { "number": 168, "region": "전라남도 목포시", "address": "전라남도 목포시 영산로 783-1", "field_4": null, "purpose": "생활방범", "camera_count": 2, "pixel": 200, "information": "거북회관", "storage_days": 30, "field_10": null, "organ_number": "061-270-8733", "latitude": 34.834337, "longitude": 126.418027, "date": "2023-11-30" }, "geometry": { "type": "Point", "coordinates": [ 126.418027, 34.834337 ] } },
{ "type": "Feature", "properties": { "number": 169, "region": "전라남도 목포시", "address": "전라남도 목포시 복산길12번길 17", "field_4": null, "purpose": "생활방범", "camera_count": 3, "pixel": 200, "information": "목포큰빞교회앞", "storage_days": 30, "field_10": null, "organ_number": "061-270-8733", "latitude": 34.804705, "longitude": 126.436289, "date": "2023-11-30" }, "geometry": { "type": "Point", "coordinates": [ 126.436289, 34.804705 ] } },
{ "type": "Feature", "properties": { "number": 170, "region": "전라남도 목포시", "address": "전라남도 목포시 복산길 50", "field_4": null, "purpose": "생활방범", "camera_count": 3, "pixel": 200, "information": "목포식육식당앞", "storage_days": 30, "field_10": null, "organ_number": "061-270-8733", "latitude": 34.806669, "longitude": 126.43505, "date": "2023-11-30" }, "geometry": { "type": "Point", "coordinates": [ 126.43505, 34.806669 ] } },
{ "type": "Feature", "properties": { "number": 171, "region": "전라남도 목포시", "address": "전라남도 목포시 당가두로13번길 7", "field_4": null, "purpose": "생활방범", "camera_count": 2, "pixel": 200, "information": "애시앙2차완충녹지통행로", "storage_days": 30, "field_10": null, "organ_number": "061-270-8733", "latitude": 34.810137, "longitude": 126.435262, "date": "2023-11-30" }, "geometry": { "type": "Point", "coordinates": [ 126.435262, 34.810137 ] } },
{ "type": "Feature", "properties": { "number": 172, "region": "전라남도 목포시", "address": "전라남도 목포시 당가두로13번길 7", "field_4": null, "purpose": "생활방범", "camera_count": 2, "pixel": 200, "information": "애시앙1차완충녹지통행로", "storage_days": 30, "field_10": null, "organ_number": "061-270-8733", "latitude": 34.810478, "longitude": 126.437862, "date": "2023-11-30" }, "geometry": { "type": "Point", "coordinates": [ 126.437862, 34.810478 ] } },
{ "type": "Feature", "properties": { "number": 173, "region": "전라남도 목포시", "address": "전라남도 목포시 당가두로38번길 11", "field_4": null, "purpose": "생활방범", "camera_count": 3, "pixel": 200, "information": "부주생태육교아래통행로", "storage_days": 30, "field_10": null, "organ_number": "061-270-8733", "latitude": 34.810468, "longitude": 126.441712, "date": "2023-11-30" }, "geometry": { "type": "Point", "coordinates": [ 126.441712, 34.810468 ] } },
{ "type": "Feature", "properties": { "number": 174, "region": "전라남도 목포시", "address": "전라남도 목포시 산정로109번길 19", "field_4": null, "purpose": "생활방범", "camera_count": 2, "pixel": 200, "information": "연동가람슈퍼옆골목", "storage_days": 30, "field_10": null, "organ_number": "061-270-8733", "latitude": 34.798219, "longitude": 126.390834, "date": "2023-11-30" }, "geometry": { "type": "Point", "coordinates": [ 126.390834, 34.798219 ] } },
{ "type": "Feature", "properties": { "number": 175, "region": "전라남도 목포시", "address": "전라남도 목포시 유달로101번길 12", "field_4": null, "purpose": "생활방범", "camera_count": 3, "pixel": 200, "information": "유달산둘레길학암사", "storage_days": 30, "field_10": null, "organ_number": "061-270-8733", "latitude": 34.788244, "longitude": 126.378383, "date": "2023-11-30" }, "geometry": { "type": "Point", "coordinates": [ 126.378383, 34.788244 ] } },
{ "type": "Feature", "properties": { "number": 176, "region": "전라남도 목포시", "address": "전라남도 목포시 북항로 78번길", "field_4": null, "purpose": "생활방범", "camera_count": 2, "pixel": 200, "information": "북항로78번길(홍일고체육관옆골목)", "storage_days": 30, "field_10": null, "organ_number": "061-270-8733", "latitude": 34.800707, "longitude": 126.376367, "date": "2023-11-30" }, "geometry": { "type": "Point", "coordinates": [ 126.376367, 34.800707 ] } },
{ "type": "Feature", "properties": { "number": 177, "region": "전라남도 목포시", "address": "전라남도 목포시 동부로 18번길", "field_4": null, "purpose": "생활방범", "camera_count": 5, "pixel": 200, "information": "목상고관사골목", "storage_days": 30, "field_10": null, "organ_number": "061-270-8733", "latitude": 34.805507, "longitude": 126.394485, "date": "2023-11-30" }, "geometry": { "type": "Point", "coordinates": [ 126.394485, 34.805507 ] } },
{ "type": "Feature", "properties": { "number": 178, "region": "전라남도 목포시", "address": "전라남도 목포시 호정로37번길 15", "field_4": null, "purpose": "생활방범", "camera_count": 4, "pixel": 200, "information": "한성슈퍼사거리", "storage_days": 30, "field_10": null, "organ_number": "061-270-8733", "latitude": 34.799592, "longitude": 126.387923, "date": "2023-11-30" }, "geometry": { "type": "Point", "coordinates": [ 126.387923, 34.799592 ] } },
{ "type": "Feature", "properties": { "number": 179, "region": "전라남도 목포시", "address": "전라남도 목포시 송림로 69", "field_4": null, "purpose": "생활방범", "camera_count": 4, "pixel": 200, "information": "이로시장", "storage_days": 30, "field_10": null, "organ_number": "061-270-8733", "latitude": 34.805735, "longitude": 126.405238, "date": "2023-11-30" }, "geometry": { "type": "Point", "coordinates": [ 126.405238, 34.805735 ] } },
{ "type": "Feature", "properties": { "number": 180, "region": "전라남도 목포시", "address": "전라남도 목포시 번화로 61-1", "field_4": null, "purpose": "생활방범", "camera_count": 4, "pixel": 200, "information": "만호동호남전업사", "storage_days": 30, "field_10": null, "organ_number": "061-270-8733", "latitude": 34.787511, "longitude": 126.38572, "date": "2023-11-30" }, "geometry": { "type": "Point", "coordinates": [ 126.38572, 34.787511 ] } },
{ "type": "Feature", "properties": { "number": 181, "region": "전라남도 목포시", "address": "전라남도 목포시 산정로150번길 22", "field_4": null, "purpose": "생활방범", "camera_count": 4, "pixel": 200, "information": "연동다문화센터사거리", "storage_days": 30, "field_10": null, "organ_number": "061-270-8733", "latitude": 34.800528, "longitude": 126.394193, "date": "2023-11-30" }, "geometry": { "type": "Point", "coordinates": [ 126.394193, 34.800528 ] } },
{ "type": "Feature", "properties": { "number": 182, "region": "전라남도 목포시", "address": "전라남도 목포시 옥암로54번길 17", "field_4": null, "purpose": "생활방범", "camera_count": 4, "pixel": 200, "information": "동해수산사거리", "storage_days": 30, "field_10": null, "organ_number": "061-270-8733", "latitude": 34.805084, "longitude": 126.430709, "date": "2023-11-30" }, "geometry": { "type": "Point", "coordinates": [ 126.430709, 34.805084 ] } },
{ "type": "Feature", "properties": { "number": 183, "region": "전라남도 목포시", "address": "전라남도 목포시 옥암로54번길 34", "field_4": null, "purpose": "생활방범", "camera_count": 4, "pixel": 200, "information": "미성야식사거리", "storage_days": 30, "field_10": null, "organ_number": "061-270-8733", "latitude": 34.805782, "longitude": 126.43215, "date": "2023-11-30" }, "geometry": { "type": "Point", "coordinates": [ 126.43215, 34.805782 ] } },
{ "type": "Feature", "properties": { "number": 184, "region": "전라남도 목포시", "address": "전라남도 목포시 외달도길 72", "field_4": null, "purpose": "생활방범", "camera_count": 3, "pixel": 200, "information": "외달도해수풀장삼거리", "storage_days": 30, "field_10": null, "organ_number": "061-270-8733", "latitude": 34.782228, "longitude": 126.29658, "date": "2023-11-30" }, "geometry": { "type": "Point", "coordinates": [ 126.29658, 34.782228 ] } },
{ "type": "Feature", "properties": { "number": 185, "region": "전라남도 목포시", "address": "전라남도 목포시 달리길 339", "field_4": null, "purpose": "생활방범", "camera_count": 3, "pixel": 200, "information": "달리도선착장", "storage_days": 30, "field_10": null, "organ_number": "061-270-8733", "latitude": 34.777223, "longitude": 126.328202, "date": "2023-11-30" }, "geometry": { "type": "Point", "coordinates": [ 126.328202, 34.777223 ] } },
{ "type": "Feature", "properties": { "number": 186, "region": "전라남도 목포시", "address": "전라남도 목포시 온남길 3", "field_4": null, "purpose": "생활방범", "camera_count": 3, "pixel": 200, "information": "구목포경찰서골목", "storage_days": 30, "field_10": null, "organ_number": "061-270-8733", "latitude": 34.814107, "longitude": 126.401158, "date": "2023-11-30" }, "geometry": { "type": "Point", "coordinates": [ 126.401158, 34.814107 ] } },
{ "type": "Feature", "properties": { "number": 187, "region": "전라남도 목포시", "address": "전라남도 목포시 영산로 165", "field_4": null, "purpose": "생활방범", "camera_count": 3, "pixel": 200, "information": "호남119센터옆골목", "storage_days": 30, "field_10": null, "organ_number": "061-270-8733", "latitude": 34.797572, "longitude": 126.387454, "date": "2023-11-30" }, "geometry": { "type": "Point", "coordinates": [ 126.387454, 34.797572 ] } },
{ "type": "Feature", "properties": { "number": 188, "region": "전라남도 목포시", "address": "전라남도 목포시 동명들목로 55-1", "field_4": null, "purpose": "생활방범", "camera_count": 3, "pixel": 200, "information": "동명들목로", "storage_days": 30, "field_10": null, "organ_number": "061-270-8733", "latitude": 34.791908, "longitude": 126.393587, "date": "2023-11-30" }, "geometry": { "type": "Point", "coordinates": [ 126.393587, 34.791908 ] } },
{ "type": "Feature", "properties": { "number": 189, "region": "전라남도 목포시", "address": "전라남도 목포시 노송길11번길5", "field_4": null, "purpose": "생활방범", "camera_count": 3, "pixel": 200, "information": "목포여고뒷편", "storage_days": 30, "field_10": null, "organ_number": "061-270-8733", "latitude": 34.798435, "longitude": 126.384079, "date": "2023-11-30" }, "geometry": { "type": "Point", "coordinates": [ 126.384079, 34.798435 ] } },
{ "type": "Feature", "properties": { "number": 190, "region": "전라남도 목포시", "address": "전라남도 목포시 산정로186번길 15-1", "field_4": null, "purpose": "생활방범", "camera_count": 5, "pixel": 200, "information": "우리왕성교회앞", "storage_days": 30, "field_10": null, "organ_number": "061-270-8733", "latitude": 34.805665, "longitude": 126.392778, "date": "2023-11-30" }, "geometry": { "type": "Point", "coordinates": [ 126.392778, 34.805665 ] } },
{ "type": "Feature", "properties": { "number": 191, "region": "전라남도 목포시", "address": "전라남도 목포시 동목포길 41", "field_4": null, "purpose": "생활방범", "camera_count": 4, "pixel": 200, "information": "뉴욕양복점앞", "storage_days": 30, "field_10": null, "organ_number": "061-270-8733", "latitude": 34.809347, "longitude": 126.396958, "date": "2023-11-30" }, "geometry": { "type": "Point", "coordinates": [ 126.396958, 34.809347 ] } },
{ "type": "Feature", "properties": { "number": 192, "region": "전라남도 목포시", "address": "전라남도 목포시 해안로 229번길", "field_4": null, "purpose": "생활방범", "camera_count": 5, "pixel": 200, "information": "갑자옥모자점앞", "storage_days": 30, "field_10": null, "organ_number": "061-270-8733", "latitude": 34.786897, "longitude": 126.385213, "date": "2023-11-30" }, "geometry": { "type": "Point", "coordinates": [ 126.385213, 34.786897 ] } },
{ "type": "Feature", "properties": { "number": 193, "region": "전라남도 목포시", "address": "전라남도 목포시 백년대로 297번길", "field_4": null, "purpose": "생활방범", "camera_count": 4, "pixel": 200, "information": "놀부정식당앞", "storage_days": 30, "field_10": null, "organ_number": "061-270-8733", "latitude": 34.805082, "longitude": 126.419424, "date": "2023-11-30" }, "geometry": { "type": "Point", "coordinates": [ 126.419424, 34.805082 ] } },
{ "type": "Feature", "properties": { "number": 194, "region": "전라남도 목포시", "address": "전라남도 목포시 양을로7번길 8", "field_4": null, "purpose": "어린이보호", "camera_count": 5, "pixel": 200, "information": "해늘어린이집", "storage_days": 30, "field_10": null, "organ_number": "061-270-8733", "latitude": 34.800592, "longitude": 126.377729, "date": "2023-11-30" }, "geometry": { "type": "Point", "coordinates": [ 126.377729, 34.800592 ] } },
{ "type": "Feature", "properties": { "number": 195, "region": "전라남도 목포시", "address": "전라남도 목포시 백년대로200번길 11", "field_4": null, "purpose": "어린이보호", "camera_count": 4, "pixel": 200, "information": "자연숲어린이집주변", "storage_days": 30, "field_10": null, "organ_number": "061-270-8733", "latitude": 34.798632, "longitude": 126.41164, "date": "2023-11-30" }, "geometry": { "type": "Point", "coordinates": [ 126.41164, 34.798632 ] } },
{ "type": "Feature", "properties": { "number": 196, "region": "전라남도 목포시", "address": "전라남도 목포시 죽교천로136번길 2", "field_4": null, "purpose": "어린이보호", "camera_count": 4, "pixel": 200, "information": "청해아파트주변", "storage_days": 30, "field_10": null, "organ_number": "061-270-8733", "latitude": 34.803127, "longitude": 126.36833, "date": "2023-11-30" }, "geometry": { "type": "Point", "coordinates": [ 126.36833, 34.803127 ] } },
{ "type": "Feature", "properties": { "number": 197, "region": "전라남도 목포시", "address": "전라남도 목포시 용당로151번길 16-3", "field_4": null, "purpose": "어린이보호", "camera_count": 1, "pixel": 200, "information": "마리아미용실주변", "storage_days": 30, "field_10": null, "organ_number": "061-270-8733", "latitude": 34.80024, "longitude": 126.399602, "date": "2023-11-30" }, "geometry": { "type": "Point", "coordinates": [ 126.399602, 34.80024 ] } },
{ "type": "Feature", "properties": { "number": 198, "region": "전라남도 목포시", "address": "전라남도 목포시 영산로153번길 13-2", "field_4": null, "purpose": "어린이보호", "camera_count": 4, "pixel": 200, "information": "신안뻘낙지골목", "storage_days": 30, "field_10": null, "organ_number": "061-270-8733", "latitude": 34.796517, "longitude": 126.385982, "date": "2023-11-30" }, "geometry": { "type": "Point", "coordinates": [ 126.385982, 34.796517 ] } },
{ "type": "Feature", "properties": { "number": 199, "region": "전라남도 목포시", "address": "전라남도 목포시 호정로 2", "field_4": null, "purpose": "어린이보호", "camera_count": 2, "pixel": 200, "information": "호정로입구", "storage_days": 30, "field_10": null, "organ_number": "061-270-8733", "latitude": 34.796571, "longitude": 126.385416, "date": "2023-11-30" }, "geometry": { "type": "Point", "coordinates": [ 126.385416, 34.796571 ] } },
{ "type": "Feature", "properties": { "number": 200, "region": "전라남도 목포시", "address": "전라남도 목포시 용당로 151번길", "field_4": null, "purpose": "어린이보호", "camera_count": 4, "pixel": 200, "information": "연꽃경로당앞", "storage_days": 30, "field_10": null, "organ_number": "061-270-8733", "latitude": 34.795038, "longitude": 126.393695, "date": "2023-11-30" }, "geometry": { "type": "Point", "coordinates": [ 126.393695, 34.795038 ] } },
{ "type": "Feature", "properties": { "number": 201, "region": "전라남도 목포시", "address": "전라남도 목포시 안장산로 38", "field_4": null, "purpose": "어린이보호", "camera_count": 4, "pixel": 200, "information": "애플펀어린이주변", "storage_days": 30, "field_10": null, "organ_number": "061-270-8733", "latitude": 34.800015, "longitude": 126.404528, "date": "2023-11-30" }, "geometry": { "type": "Point", "coordinates": [ 126.404528, 34.800015 ] } },
{ "type": "Feature", "properties": { "number": 202, "region": "전라남도 목포시", "address": "전라남도 목포시 관해로 71", "field_4": null, "purpose": "어린이보호", "camera_count": 4, "pixel": 200, "information": "스토리힐즈주변", "storage_days": 30, "field_10": null, "organ_number": "061-270-8733", "latitude": 34.821281, "longitude": 126.399182, "date": "2023-11-30" }, "geometry": { "type": "Point", "coordinates": [ 126.399182, 34.821281 ] } },
{ "type": "Feature", "properties": { "number": 203, "region": "전라남도 목포시", "address": "전라남도 목포시 노송길 34", "field_4": null, "purpose": "어린이보호", "camera_count": 3, "pixel": 200, "information": "성심유치원주변", "storage_days": 30, "field_10": null, "organ_number": "061-270-8733", "latitude": 34.799395, "longitude": 126.38676, "date": "2023-11-30" }, "geometry": { "type": "Point", "coordinates": [ 126.38676, 34.799395 ] } },
{ "type": "Feature", "properties": { "number": 204, "region": "전라남도 목포시", "address": "전라남도 목포시 삼학로41번길 17-1", "field_4": null, "purpose": "어린이보호", "camera_count": 4, "pixel": 200, "information": "남초서문", "storage_days": 30, "field_10": null, "organ_number": "061-270-8733", "latitude": 34.791769, "longitude": 126.390116, "date": "2023-11-30" }, "geometry": { "type": "Point", "coordinates": [ 126.390116, 34.791769 ] } },
{ "type": "Feature", "properties": { "number": 205, "region": "전라남도 목포시", "address": "전라남도 목포시 통일대로119번길 25", "field_4": null, "purpose": "어린이보호", "camera_count": 5, "pixel": 200, "information": "하당청소년문화센터앞", "storage_days": 30, "field_10": null, "organ_number": "061-270-8733", "latitude": 34.804231, "longitude": 126.435127, "date": "2023-11-30" }, "geometry": { "type": "Point", "coordinates": [ 126.435127, 34.804231 ] } },
{ "type": "Feature", "properties": { "number": 206, "region": "전라남도 목포시", "address": "전라남도 목포시 장미로 67", "field_4": null, "purpose": "생활방범", "camera_count": 2, "pixel": 200, "information": "사랑의연못부근(거성펠리시앙)", "storage_days": 30, "field_10": null, "organ_number": "061-270-8733", "latitude": 34.803641, "longitude": 126.428439, "date": "2023-11-30" }, "geometry": { "type": "Point", "coordinates": [ 126.428439, 34.803641 ] } },
{ "type": "Feature", "properties": { "number": 207, "region": "전라남도 목포시", "address": "전라남도 목포시 양을산길 36", "field_4": null, "purpose": "생활방범", "camera_count": 3, "pixel": 200, "information": "양을산등산로(비녀산슈퍼)", "storage_days": 30, "field_10": null, "organ_number": "061-270-8733", "latitude": 34.813458, "longitude": 126.403366, "date": "2023-11-30" }, "geometry": { "type": "Point", "coordinates": [ 126.403366, 34.813458 ] } },
{ "type": "Feature", "properties": { "number": 208, "region": "전라남도 목포시", "address": "전라남도 목포시 만호로 50-1", "field_4": null, "purpose": "생활방범", "camera_count": 3, "pixel": 200, "information": "만호동원예종묘농약사앞", "storage_days": 30, "field_10": null, "organ_number": "061-270-8733", "latitude": 34.784291, "longitude": 126.383854, "date": "2023-11-30" }, "geometry": { "type": "Point", "coordinates": [ 126.383854, 34.784291 ] } },
{ "type": "Feature", "properties": { "number": 209, "region": "전라남도 목포시", "address": "전라남도 목포시 당가두로14번길 5", "field_4": null, "purpose": "생활방범", "camera_count": 3, "pixel": 200, "information": "롯데슈퍼옥암점후문", "storage_days": 30, "field_10": null, "organ_number": "061-270-8733", "latitude": 34.807908, "longitude": 126.43818, "date": "2023-11-30" }, "geometry": { "type": "Point", "coordinates": [ 126.43818, 34.807908 ] } },
{ "type": "Feature", "properties": { "number": 210, "region": "전라남도 목포시", "address": "전라남도 목포시 백년대로 418", "field_4": null, "purpose": "생활방범", "camera_count": 3, "pixel": 200, "information": "미즈아이병원뒤편", "storage_days": 30, "field_10": null, "organ_number": "061-270-8733", "latitude": 34.808902, "longitude": 126.43267, "date": "2023-11-30" }, "geometry": { "type": "Point", "coordinates": [ 126.43267, 34.808902 ] } },
{ "type": "Feature", "properties": { "number": 211, "region": "전라남도 목포시", "address": "전라남도 목포시 교육로41번길 11", "field_4": null, "purpose": "생활방범", "camera_count": 3, "pixel": 200, "information": "신흥동남경회관앞", "storage_days": 30, "field_10": null, "organ_number": "061-270-8733", "latitude": 34.799716, "longitude": 126.420487, "date": "2023-11-30" }, "geometry": { "type": "Point", "coordinates": [ 126.420487, 34.799716 ] } },
{ "type": "Feature", "properties": { "number": 212, "region": "전라남도 목포시", "address": "전라남도 목포시 용당로 321", "field_4": null, "purpose": "생활방범", "camera_count": 3, "pixel": 200, "information": "용해동라이프1차아파트뒤", "storage_days": 30, "field_10": null, "organ_number": "061-270-8733", "latitude": 34.815466, "longitude": 126.398702, "date": "2023-11-30" }, "geometry": { "type": "Point", "coordinates": [ 126.398702, 34.815466 ] } },
{ "type": "Feature", "properties": { "number": 213, "region": "전라남도 목포시", "address": "전라남도 목포시 동명주택길 17", "field_4": null, "purpose": "생활방범", "camera_count": 4, "pixel": 200, "information": "삼학동용천사우나앞", "storage_days": 30, "field_10": null, "organ_number": "061-270-8733", "latitude": 34.79187, "longitude": 126.397443, "date": "2023-11-30" }, "geometry": { "type": "Point", "coordinates": [ 126.397443, 34.79187 ] } },
{ "type": "Feature", "properties": { "number": 214, "region": "전라남도 목포시", "address": "전라남도 목포시 삼학로 43", "field_4": null, "purpose": "생활방범", "camera_count": 3, "pixel": 200, "information": "동명동남해추어탕앞", "storage_days": 30, "field_10": null, "organ_number": "061-270-8733", "latitude": 34.789216, "longitude": 126.392013, "date": "2023-11-30" }, "geometry": { "type": "Point", "coordinates": [ 126.392013, 34.789216 ] } },
{ "type": "Feature", "properties": { "number": 215, "region": "전라남도 목포시", "address": "전라남도 목포시 삼학로16번길 13", "field_4": null, "purpose": "생활방범", "camera_count": 4, "pixel": 200, "information": "목원동목포문화원뒤", "storage_days": 30, "field_10": null, "organ_number": "061-270-8733", "latitude": 34.788966, "longitude": 126.386243, "date": "2023-11-30" }, "geometry": { "type": "Point", "coordinates": [ 126.386243, 34.788966 ] } },
{ "type": "Feature", "properties": { "number": 216, "region": "전라남도 목포시", "address": "전라남도 목포시 마파지로 28", "field_4": null, "purpose": "생활방범", "camera_count": 4, "pixel": 200, "information": "대성동목포비젼교회앞", "storage_days": 30, "field_10": null, "organ_number": "061-270-8733", "latitude": 34.799891, "longitude": 126.383634, "date": "2023-11-30" }, "geometry": { "type": "Point", "coordinates": [ 126.383634, 34.799891 ] } },
{ "type": "Feature", "properties": { "number": 217, "region": "전라남도 목포시", "address": "전라남도 목포시 청호로 34", "field_4": null, "purpose": "생활방범", "camera_count": 4, "pixel": 200, "information": "목포농협대성지점앞", "storage_days": 30, "field_10": null, "organ_number": "061-270-8733", "latitude": 34.797305, "longitude": 126.383322, "date": "2023-11-30" }, "geometry": { "type": "Point", "coordinates": [ 126.383322, 34.797305 ] } },
{ "type": "Feature", "properties": { "number": 218, "region": "전라남도 목포시", "address": "전라남도 목포시 원산로69번길 24", "field_4": null, "purpose": "생활방범", "camera_count": 3, "pixel": 200, "information": "송학가든빌라부근", "storage_days": 30, "field_10": null, "organ_number": "061-270-8733", "latitude": 34.806961, "longitude": 126.374729, "date": "2023-11-30" }, "geometry": { "type": "Point", "coordinates": [ 126.374729, 34.806961 ] } },
{ "type": "Feature", "properties": { "number": 219, "region": "전라남도 목포시", "address": "전라남도 목포시 연동로4번길 13", "field_4": null, "purpose": "생활방범", "camera_count": 3, "pixel": 200, "information": "코리아나사우나부근", "storage_days": 30, "field_10": null, "organ_number": "061-270-8733", "latitude": 34.794114, "longitude": 126.393197, "date": "2023-11-30" }, "geometry": { "type": "Point", "coordinates": [ 126.393197, 34.794114 ] } },
{ "type": "Feature", "properties": { "number": 220, "region": "전라남도 목포시", "address": "전라남도 목포시 영산로258번길 8-2", "field_4": null, "purpose": "생활방범", "camera_count": 5, "pixel": 200, "information": "용당2동원조가락지앞", "storage_days": 30, "field_10": null, "organ_number": "061-270-8733", "latitude": 34.802218, "longitude": 126.395347, "date": "2023-11-30" }, "geometry": { "type": "Point", "coordinates": [ 126.395347, 34.802218 ] } },
{ "type": "Feature", "properties": { "number": 221, "region": "전라남도 목포시", "address": "전라남도 목포시 용해로 40", "field_4": null, "purpose": "생활방범", "camera_count": 3, "pixel": 200, "information": "용당동무궁화슈퍼부근", "storage_days": 30, "field_10": null, "organ_number": "061-270-8733", "latitude": 34.801534, "longitude": 126.39742, "date": "2023-11-30" }, "geometry": { "type": "Point", "coordinates": [ 126.39742, 34.801534 ] } },
{ "type": "Feature", "properties": { "number": 222, "region": "전라남도 목포시", "address": "전라남도 목포시 동부로38번길 2", "field_4": null, "purpose": "생활방범", "camera_count": 4, "pixel": 200, "information": "청호중후문해동미용실앞", "storage_days": 30, "field_10": null, "organ_number": "061-270-8733", "latitude": 34.806861, "longitude": 126.393329, "date": "2023-11-30" }, "geometry": { "type": "Point", "coordinates": [ 126.393329, 34.806861 ] } },
{ "type": "Feature", "properties": { "number": 223, "region": "전라남도 목포시", "address": "전라남도 목포시 동부로58번길 21", "field_4": null, "purpose": "생활방범", "camera_count": 3, "pixel": 200, "information": "용당동목포가든교회", "storage_days": 30, "field_10": null, "organ_number": "061-270-8733", "latitude": 34.809535, "longitude": 126.39433, "date": "2023-11-30" }, "geometry": { "type": "Point", "coordinates": [ 126.39433, 34.809535 ] } },
{ "type": "Feature", "properties": { "number": 224, "region": "전라남도 목포시", "address": "전라남도 목포시 소영길 33-1", "field_4": null, "purpose": "생활방범", "camera_count": 3, "pixel": 200, "information": "3호광장목포동문교회부근", "storage_days": 30, "field_10": null, "organ_number": "061-270-8733", "latitude": 34.806192, "longitude": 126.397859, "date": "2023-11-30" }, "geometry": { "type": "Point", "coordinates": [ 126.397859, 34.806192 ] } },
{ "type": "Feature", "properties": { "number": 225, "region": "전라남도 목포시", "address": "전라남도 목포시 해양대학로 28", "field_4": null, "purpose": "생활방범", "camera_count": 2, "pixel": 200, "information": "유달산공생원입구", "storage_days": 30, "field_10": null, "organ_number": "061-270-8733", "latitude": 34.786267, "longitude": 126.368822, "date": "2023-11-30" }, "geometry": { "type": "Point", "coordinates": [ 126.368822, 34.786267 ] } },
{ "type": "Feature", "properties": { "number": 226, "region": "전라남도 목포시", "address": "전라남도 목포시 해안로 77", "field_4": null, "purpose": "생활방범", "camera_count": 3, "pixel": 200, "information": "서산동조선내화앞삼거리", "storage_days": 30, "field_10": null, "organ_number": "061-270-8733", "latitude": 34.780184, "longitude": 126.373172, "date": "2023-11-30" }, "geometry": { "type": "Point", "coordinates": [ 126.373172, 34.780184 ] } },
{ "type": "Feature", "properties": { "number": 227, "region": "전라남도 목포시", "address": "전라남도 목포시 유달로 221", "field_4": null, "purpose": "생활방범", "camera_count": 3, "pixel": 200, "information": "유달산조각공원앞삼거리", "storage_days": 30, "field_10": null, "organ_number": "061-270-8733", "latitude": 34.794267, "longitude": 126.374733, "date": "2023-11-30" }, "geometry": { "type": "Point", "coordinates": [ 126.374733, 34.794267 ] } },
{ "type": "Feature", "properties": { "number": 228, "region": "전라남도 목포시", "address": "전라남도 목포시 노적봉길 45", "field_4": null, "purpose": "생활방범", "camera_count": 3, "pixel": 200, "information": "노적봉주차장입구삼거리", "storage_days": 30, "field_10": null, "organ_number": "061-270-8733", "latitude": 34.788881, "longitude": 126.38117, "date": "2023-11-30" }, "geometry": { "type": "Point", "coordinates": [ 126.38117, 34.788881 ] } },
{ "type": "Feature", "properties": { "number": 229, "region": "전라남도 목포시", "address": "전라남도 목포시 해양대학로 233-1", "field_4": null, "purpose": "생활방범", "camera_count": 3, "pixel": 200, "information": "해상케이블카앞삼거리", "storage_days": 30, "field_10": null, "organ_number": "061-270-8733", "latitude": 34.797819, "longitude": 126.367731, "date": "2023-11-30" }, "geometry": { "type": "Point", "coordinates": [ 126.367731, 34.797819 ] } },
{ "type": "Feature", "properties": { "number": 230, "region": "전라남도 목포시", "address": "전라남도 목포시 통일대로119번길 11", "field_4": null, "purpose": "생활방범", "camera_count": 2, "pixel": 200, "information": "삼향천8", "storage_days": 30, "field_10": null, "organ_number": "061-270-8733", "latitude": 34.803143, "longitude": 126.436257, "date": "2023-11-30" }, "geometry": { "type": "Point", "coordinates": [ 126.436257, 34.803143 ] } },
{ "type": "Feature", "properties": { "number": 231, "region": "전라남도 목포시", "address": "전라남도 목포시 복산길 38", "field_4": null, "purpose": "생활방범", "camera_count": 2, "pixel": 200, "information": "삼향천7", "storage_days": 30, "field_10": null, "organ_number": "061-270-8733", "latitude": 34.805344, "longitude": 126.435472, "date": "2023-11-30" }, "geometry": { "type": "Point", "coordinates": [ 126.435472, 34.805344 ] } },
{ "type": "Feature", "properties": { "number": 232, "region": "전라남도 목포시", "address": "전라남도 목포시 복산길 64-4", "field_4": null, "purpose": "생활방범", "camera_count": 2, "pixel": 200, "information": "삼향천6", "storage_days": 30, "field_10": null, "organ_number": "061-270-8733", "latitude": 34.807457, "longitude": 126.434547, "date": "2023-11-30" }, "geometry": { "type": "Point", "coordinates": [ 126.434547, 34.807457 ] } },
{ "type": "Feature", "properties": { "number": 233, "region": "전라남도 목포시", "address": "전라남도 목포시 복산길 68", "field_4": null, "purpose": "생활방범", "camera_count": 2, "pixel": 200, "information": "삼향천5", "storage_days": 30, "field_10": null, "organ_number": "061-270-8733", "latitude": 34.808613, "longitude": 126.433789, "date": "2023-11-30" }, "geometry": { "type": "Point", "coordinates": [ 126.433789, 34.808613 ] } },
{ "type": "Feature", "properties": { "number": 234, "region": "전라남도 목포시", "address": "전라남도 목포시 삼향천로 110", "field_4": null, "purpose": "생활방범", "camera_count": 2, "pixel": 200, "information": "삼향천4", "storage_days": 30, "field_10": null, "organ_number": "061-270-8733", "latitude": 34.810187, "longitude": 126.430539, "date": "2023-11-30" }, "geometry": { "type": "Point", "coordinates": [ 126.430539, 34.810187 ] } },
{ "type": "Feature", "properties": { "number": 235, "region": "전라남도 목포시", "address": "전라남도 목포시 상동로21번길 111", "field_4": null, "purpose": "어린이보호", "camera_count": 2, "pixel": 200, "information": "항도여중사거리", "storage_days": 30, "field_10": null, "organ_number": "061-270-8733", "latitude": 34.816581, "longitude": 126.412361, "date": "2023-11-30" }, "geometry": { "type": "Point", "coordinates": [ 126.412361, 34.816581 ] } },
{ "type": "Feature", "properties": { "number": 236, "region": "전라남도 목포시", "address": "전라남도 목포시 청호로130번길 11-2", "field_4": null, "purpose": "어린이보호", "camera_count": 4, "pixel": 200, "information": "중앙어린이공원", "storage_days": 30, "field_10": null, "organ_number": "061-270-8733", "latitude": 34.80417, "longitude": 126.377783, "date": "2023-11-30" }, "geometry": { "type": "Point", "coordinates": [ 126.377783, 34.80417 ] } },
{ "type": "Feature", "properties": { "number": 237, "region": "전라남도 목포시", "address": "전라남도 목포시 남악2로22번길 58", "field_4": null, "purpose": "어린이보호", "camera_count": 2, "pixel": 200, "information": "옥암지구5어린이공원", "storage_days": 30, "field_10": null, "organ_number": "061-270-8733", "latitude": 34.806189, "longitude": 126.457866, "date": "2023-11-30" }, "geometry": { "type": "Point", "coordinates": [ 126.457866, 34.806189 ] } },