{
"type": "FeatureCollection",
"name": "crime",
"crs": { "type": "name", "properties": { "name": "urn:ogc:def:crs:OGC:1.3:CRS84" } },
"features": [
{ "type": "Feature", "properties": { "__id__": "1BCqoqQg8f3F2fXdPcnG", "거주지": " 전라남도 목포시 하당로227번길 17 (상동)", "경도": 126.4198961, "위도": 34.8098158, "이름": "박경남", "이름_1": null }, "geometry": { "type": "Point", "coordinates": [ 126.419896099999988, 34.8098158 ] } },
{ "type": "Feature", "properties": { "__id__": "1aK7PJYJDgmkaxH2kVnt", "거주지": " 전라남도 목포시 송림로 5 (용당동)", "경도": 126.3995759, "위도": 34.8085668, "이름": "서정남", "이름_1": null }, "geometry": { "type": "Point", "coordinates": [ 126.3995759, 34.8085668 ] } },
{ "type": "Feature", "properties": { "__id__": "3aBnH4pkKt4xb8prHEjW", "거주지": "전라남도 목포시 고하대로 795-2 (연산동)", "경도": 126.380155, "위도": 34.8168779, "이름": "박진국", "이름_1": null }, "geometry": { "type": "Point", "coordinates": [ 126.380155, 34.8168779 ] } },
{ "type": "Feature", "properties": { "__id__": "4qj4BPsfmUXHoP37LiEr", "거주지": " 전라남도 목포시 백년대로297번길 23 (상동)", "경도": 126.4187265, "위도": 34.8057479, "이름": "김부안", "이름_1": null }, "geometry": { "type": "Point", "coordinates": [ 126.41872650000002, 34.8057479 ] } },
{ "type": "Feature", "properties": { "__id__": "8JQxL6MGaD2loQHKMC8p", "거주지": "전라남도 목포시 원산중앙로 108 (연산동)", "경도": 126.3830785, "위도": 34.8123397, "이름": null, "이름_1": "조일진" }, "geometry": { "type": "Point", "coordinates": [ 126.3830785, 34.8123397 ] } },
{ "type": "Feature", "properties": { "__id__": "A4cTbEHFaPBagN5aWT8l", "거주지": "전라남도 목포시 영산로330번길 14-1 (용당동)", "경도": 126.4016269, "위도": 34.8044575, "이름": "조주태", "이름_1": null }, "geometry": { "type": "Point", "coordinates": [ 126.4016269, 34.8044575 ] } },
{ "type": "Feature", "properties": { "__id__": "BZ7ryFQFTZGbIeOqB3Ib", "거주지": "전라남도 목포시 후광대로143번길 8-14 (옥암동)", "경도": 126.4485843, "위도": 34.8140029, "이름": "위봉우", "이름_1": null }, "geometry": { "type": "Point", "coordinates": [ 126.4485843, 34.8140029 ] } },
{ "type": "Feature", "properties": { "__id__": "CnR1WWZIT9JwFYb1jdHU", "거주지": "전라남도 목포시 연동로 24 (산정동)", "경도": 126.3956737, "위도": 34.7955128, "이름": "이재영", "이름_1": null }, "geometry": { "type": "Point", "coordinates": [ 126.3956737, 34.7955128 ] } },
{ "type": "Feature", "properties": { "__id__": "DHaQ5xBufg0CzMXcOKOU", "거주지": "전라남도 목포시 원산주택로 25 (산정동)", "경도": 126.3746366, "위도": 34.808442, "이름": "박태화", "이름_1": null }, "geometry": { "type": "Point", "coordinates": [ 126.3746366, 34.808442 ] } },
{ "type": "Feature", "properties": { "__id__": "DckM4SSt9ATaUEMSJlXl", "거주지": "전라남도 목포시 북항로31번안길 2 (양동)", "경도": 126.3796696, "위도": 34.7976058, "이름": "오민철", "이름_1": null }, "geometry": { "type": "Point", "coordinates": [ 126.3796696, 34.7976058 ] } },
{ "type": "Feature", "properties": { "__id__": "FyJYZu6I3kftGKTZTYkK", "거주지": "전라남도 목포시 석현로 42 (석현동)", "경도": 126.4250597, "위도": 34.8160769, "이름": "임용관", "이름_1": null }, "geometry": { "type": "Point", "coordinates": [ 126.42505970000002, 34.8160769 ] } },
{ "type": "Feature", "properties": { "__id__": "JtgtFIKjrSidMq24aPXB", "거주지": "전라남도 목포시 안장산로5번길 10-5 (용당동)", "경도": 126.4011997, "위도": 34.8017172, "이름": "이재형", "이름_1": null }, "geometry": { "type": "Point", "coordinates": [ 126.401199700000021, 34.8017172 ] } },
{ "type": "Feature", "properties": { "__id__": "MN8kdQKAkWWyLd3OL2IY", "거주지": " 전라남도 목포시 양을로98번길 5-1 (산정동)", "경도": 126.3854975, "위도": 34.8050098, "이름": "김광춘", "이름_1": null }, "geometry": { "type": "Point", "coordinates": [ 126.3854975, 34.8050098 ] } },
{ "type": "Feature", "properties": { "__id__": "NAeGwp8Em8roWffXaZpP", "거주지": "전라남도 목포시 산정로 198-1 (용당동)", "경도": 126.3905475, "위도": 34.805894, "이름": "김영목", "이름_1": null }, "geometry": { "type": "Point", "coordinates": [ 126.3905475, 34.805894 ] } },
{ "type": "Feature", "properties": { "__id__": "OmfCCfInKdegxPGNAbUs", "거주지": " 전라남도 목포시 섶나루길 80-1 (상동)", "경도": 126.4171687, "위도": 34.8073237, "이름": "김동근", "이름_1": null }, "geometry": { "type": "Point", "coordinates": [ 126.4171687, 34.8073237 ] } },
{ "type": "Feature", "properties": { "__id__": "Pca8MVR7AAi3xdWTlZgN", "거주지": "전라남도 목포시 둥근섬로16번길 15 (산정동)", "경도": 126.4024243, "위도": 34.7894152, "이름": "최용석", "이름_1": null }, "geometry": { "type": "Point", "coordinates": [ 126.4024243, 34.7894152 ] } },
{ "type": "Feature", "properties": { "__id__": "SNiBXzg3SzBcZX3g8jqq", "거주지": " 전라남도 목포시 용당로21번길 24 (산정동)", "경도": 126.3994366, "위도": 34.7897212, "이름": "김봉진", "이름_1": null }, "geometry": { "type": "Point", "coordinates": [ 126.3994366, 34.7897212 ] } },
{ "type": "Feature", "properties": { "__id__": "XAiS6munGW1WcHaG299i", "거주지": "전라남도 목포시 당가두로38번길 8-25 (옥암동)", "경도": 126.4398053, "위도": 34.8083301, "이름": "김기현", "이름_1": null }, "geometry": { "type": "Point", "coordinates": [ 126.4398053, 34.8083301 ] } },
{ "type": "Feature", "properties": { "__id__": "XGzWJMNuWwkoRByDJrum", "거주지": " 전라남도 목포시 삼학로93번길 4-1 (동명동)", "경도": 126.3943561, "위도": 34.7876726, "이름": "신영수", "이름_1": null }, "geometry": { "type": "Point", "coordinates": [ 126.3943561, 34.7876726 ] } },
{ "type": "Feature", "properties": { "__id__": "Y063YIoy1JBbsQ2PVx8c", "거주지": " 전라남도 목포시 남악1로16번길 10 (옥암동)", "경도": 126.4488539, "위도": 34.8062786, "이름": "김성현", "이름_1": null }, "geometry": { "type": "Point", "coordinates": [ 126.4488539, 34.8062786 ] } },
{ "type": "Feature", "properties": { "__id__": "bICvYe5krf9RZAQIy7Cc", "거주지": "전라남도 목포시 청호로130번길 4-1 (산정동)", "경도": 126.377213, "위도": 34.8034731, "이름": "차영달", "이름_1": null }, "geometry": { "type": "Point", "coordinates": [ 126.377213, 34.8034731 ] } },
{ "type": "Feature", "properties": { "__id__": "bj3qZk3x15seVuWxeqLh", "거주지": " 전라남도 목포시 동부로5번길 7 (용당동)", "경도": 126.377213, "위도": 34.8034731, "이름": "김동관", "이름_1": null }, "geometry": { "type": "Point", "coordinates": [ 126.377213, 34.8034731 ] } },
{ "type": "Feature", "properties": { "__id__": "fMYgcVYQcIsh8MxsRbCB", "거주지": "전라남도 목포시 신흥로 13 (상동)", "경도": 126.4218118, "위도": 34.8024479, "이름": "김상근", "이름_1": null }, "geometry": { "type": "Point", "coordinates": [ 126.421811799999986, 34.8024479 ] } },
{ "type": "Feature", "properties": { "__id__": "gSiEDEchSl2mOxK394jP", "거주지": "전라남도 목포시 백년대로297번길 14-3 (상동)", "경도": 126.4199889, "위도": 34.8052123, "이름": "한승원", "이름_1": null }, "geometry": { "type": "Point", "coordinates": [ 126.4199889, 34.8052123 ] } },
{ "type": "Feature", "properties": { "__id__": "jAiogL20ce7qpBPStUBD", "거주지": "전라남도 목포시 영산로318번길 16 (용당동)", "경도": 126.4004885, "위도": 34.804183, "이름": "송이섭", "이름_1": null }, "geometry": { "type": "Point", "coordinates": [ 126.40048849999998, 34.804183 ] } },
{ "type": "Feature", "properties": { "__id__": "jB9LCqI3Q0Dx8FcYb2YH", "거주지": " 전라남도 목포시 삼학로93번길 4-1 (동명동)", "경도": 126.4004885, "위도": 34.804183, "이름": "김동현", "이름_1": null }, "geometry": { "type": "Point", "coordinates": [ 126.40048849999998, 34.804183 ] } },
{ "type": "Feature", "properties": { "__id__": "jUoWBAfBLxriHF2m2Vb4", "거주지": "전라남도 목포시 양을로 508 (상동)", "경도": 126.4211037, "위도": 34.8115381, "이름": "최은수", "이름_1": null }, "geometry": { "type": "Point", "coordinates": [ 126.421103699999989, 34.8115381 ] } },
{ "type": "Feature", "properties": { "__id__": "kTy1XRV7uJhRCB6zZDfB", "거주지": " 전라남도 목포시 남악1로52번가길 2-11 (옥암동)", "경도": 126.4487535, "위도": 34.8111368, "이름": "박수현", "이름_1": null }, "geometry": { "type": "Point", "coordinates": [ 126.4487535, 34.8111368 ] } },
{ "type": "Feature", "properties": { "__id__": "kzs1gdTbglitjYld8JaP", "거주지": "전라남도 목포시 산정로142번길 28-1 (용당동)", "경도": 126.395648, "위도": 34.802322, "이름": "김영길", "이름_1": null }, "geometry": { "type": "Point", "coordinates": [ 126.395648, 34.802322 ] } },
{ "type": "Feature", "properties": { "__id__": "uo1kVoZ5s8WEODOJ0sWN", "거주지": "전라남도 목포시 후광대로105번안길 5 (옥암동)", "경도": 126.4426953, "위도": 34.8125427, "이름": "황승현", "이름_1": null }, "geometry": { "type": "Point", "coordinates": [ 126.442695300000011, 34.8125427 ] } }
]
}
